PORT_NAME,CNTR_CODE3,LONGITUDE,LATITUDE,Port Name Lower,Main Port Name,Country Code,Latitude,Longitude,_merge,lon diff,lat diff,position diff,Country Code 3
AABENRAA,DNK,9.427490234,55.04168701,aabenraa,,,,,left_only,3.2079902340000004,-7.431046860000002,10.639037094000003,
AALBORG,DNK,9.95285919,57.05171413,aalborg,,,,,left_only,0.5253689559999994,2.0100271200000037,2.535396076000003,
AALST,NLD,5.45,51.38333333,aalst,,,,,left_only,-4.521923827999999,-5.682340500000002,10.204264328,
AAMSHITE,LBN,35.6278,34.15203387,aamshite,,,,,left_only,30.1778,-17.231299460000002,47.40909946000001,
AARHUS,DNK,10.216666,56.15,aarhus,,,,,left_only,-25.411134,21.997966130000002,47.40910013,
AASIAAT,GRL,-52.866667,68.7,aasiaat,Aasiaat,Greenland,68.710833333,-52.868333333,both,-63.083332999999996,12.550000000000004,75.633333,GRL
ABADAN,IRN,48.2797,30.337534,abadan,Abadan,Iran,30.333333,48.283333,both,101.146367,-38.362466,139.50883299999998,IRN
ABASHIRI,JPN,144.1231,44.016334,abashiri,,,,,left_only,95.8434,13.678799999999999,109.5222,
ABASHIRI KO,JPN,144.2833333,44.01666667,abashiri ko,Abashiri Ko,Japan,44.016667,144.283333,both,0.1602333000000158,0.00033266999999881364,0.1605659700000146,JPN
ABAU,PNG,148.7531,-10.169166,abau,,,,,left_only,4.46976699999999,-54.185833,58.65559999999999,
ABBEVILLE,FRA,1.8365,50.104934,abbeville,,,,,left_only,-146.9166,60.274100000000004,207.1907,
ABBOT POINT,AUS,148.0749,-19.88786613,abbot point,,,,,left_only,146.2384,-69.99280013,216.23120013000002,
ABENRA,DNK,9.433333,55.05,abenra,Abenra,Denmark,55.05,9.433333,both,-138.641567,74.93786613,213.57943313,DNK
ABERDEEN,GBR,-2.08036005,57.1429486,aberdeen,Aberdeen,United States,46.983333,-123.816667,both,-11.513693049999999,2.0929485999999997,13.606641649999998,USA
ABIDJAN,CIV,-4.0218,5.332734,abidjan,Abidjan,Cote D'Ivoire,5.25,-4.016667,both,-1.947182803,-51.80948822,53.756671022999996,
ABU AL BUKHOOSH,ARE,53.1281,25.42853387,abu al bukhoosh,,,,,left_only,57.1499,20.09579987,77.24569987000001,
ABU KAMMASH,LBY,11.74549865,33.07466933,abu kammash,,,,,left_only,-41.38260135,7.64613546,49.02873681,
ABU QIR,EGY,30.0667,31.3167,abu qir,Abu Qir, ,31.3156843,30.0839138,both,18.25003333,-1.7499666699999956,19.999999999999996,
ABU RUDEIS,EGY,33.1831,28.90733387,abu rudeis,,,,,left_only,3.1164000000000023,-2.409366130000002,5.5257661300000045,
ABU ZABY,ARE,54.333333,24.5,abu zaby,Abu Zaby,United Arab Emirates,24.5,54.333333,both,21.150233,-4.407333869999999,25.55756687,ARE
ABU ZENIMA,EGY,33.1191,29.04313387,abu zenima,,,,,left_only,-21.214233,4.543133869999998,25.75736687,
ABURATSU,JPN,131.4065,31.571434,aburatsu,,,,,left_only,98.28739999999999,2.5283001300000016,100.81570013,
ACAJUTLA,SLV,-89.8374,13.57773387,acajutla,Acajutla,El Salvador,13.583333,-89.83333299999998,both,-221.2388134,-17.99559946,239.23441286,SLV
ACAPULCO,MEX,-99.933333,16.85,acapulco,Acapulco,Mexico,16.85,-99.933333,both,-10.066665999999998,3.2666670000000018,13.333333,MEX
ACHLADI,GRC,22.81116503,38.91152167,achladi,Achladi,Greece,38.9,22.816667,both,122.74449803,22.061521669999998,144.8060197,GRC
ACITREZZA HARBOR,ITA,15.15812721,37.56194444,acitrezza harbor,,,,,left_only,-7.664565660000001,-1.3283753800000042,8.992941040000005,
AD DAKHLA,MAR,-15.916667,23.7,ad dakhla,Ad Dakhla,Western Sahara,23.7,-15.916667,both,-31.07479421,-13.861944439999998,44.936738649999995,ESH
ADABIYA,EGY,32.4735,29.86533387,adabiya,,,,,left_only,48.390167000000005,6.165333870000001,54.55550087,
ADAK NAVAL AIR STATION,USA,-176.633333,51.866667,adak naval air station,Adak Naval Air Station,United States,51.866667,-176.633333,both,-209.106833,22.00133313,231.10816613,USA
ADELAIDE,AUS,138.4788818,-34.8861084,adelaide,,,,,left_only,315.1122148,-86.75277539999999,401.86499019999997,
ADEN,YEM,45.00531006,12.79528809,aden,Aden,Yemen,12.783333,44.95,both,-93.47357174000001,47.68139649,141.15496823,YEM
ADLER,RUS,39.933333,43.433333,adler,Adler,Russia,43.433333,39.933333,both,-5.071977060000002,30.638044909999998,35.71002197,RUS
ADMIRAL BARROSO TERMINAL,BRA,-45.32603062,-23.70972222,admiral barroso terminal,,,,,left_only,-85.25936361999999,-67.14305522,152.40241884,
ADMIRALTY BAY,ATA,-58.416667,-62.083333,admiralty bay,Admiralty Bay,Antarctica,-62.083333,-58.416667,both,-13.09063638,-38.37361078000001,51.464247160000006,ATA
ADOK,SSD,30.320728,8.185455,adok,,,,,left_only,88.73739499999999,70.268788,159.006183,
ADP NYBORG TERMINAL,DNK,10.80689046,55.29888889,adp nyborg terminal,,,,,left_only,-19.513837539999997,47.11343389,66.62727143000001,
ADRA,ESP,-3.021515263,36.74487185,adra,Adra,Spain,36.733333,-3.033333,both,-13.828405723,-18.554017039999998,32.382422762999994,ESP
ADRIATIC LNG TERMINAL,ITA,12.586111,45.091667,adriatic lng terminal,,,,,left_only,15.607626263,8.346795149999998,23.954421413,
AEGINA (AIGINA),GRC,23.43170166,37.74597168,aegina (aigina),,,,,left_only,10.845590660000001,-7.345695320000004,18.191285980000004,
AEROSKOBING,DNK,10.416667,54.883333,aeroskobing,Aeroskobing,Denmark,54.883333,10.416667,both,-13.015034660000001,17.137361320000004,30.152395980000005,DNK
AGADIR,MAR,-9.6292,30.420934,agadir,Agadir,Morocco,30.433333,-9.633333,both,-20.045867,-24.462399,44.508266000000006,MAR
AGATHONISSI DODEKANISSOU (AGATHONISI DODEKANISON),GRC,26.96710205,37.47369385,agathonissi dodekanissou (agathonisi dodekanison),,,,,left_only,36.596302050000006,7.0527598499999975,43.64906190000001,
,NGA,5.566667,3.466667,agbami oil terminal,Agbami Oil Terminal,Nigeria,3.466667,5.566667,right_only,-21.400435050000002,-34.007026849999995,55.4074619,NGA
AGERSO,DNK,11.19769287,55.21209717,agerso,,,,,left_only,5.631025869999999,51.74543017,57.37645604,
AGGER HAVN,DNK,8.256530762,56.77630615,agger havn,,,,,left_only,-2.9361665279999993,1.5654728200000037,4.501639348000003,
AGGERSUND HAVN,DNK,9.292480469,57.00109863,aggersund havn,,,,,left_only,1.0359497069999986,0.22479247999999785,1.2607421869999964,
AGIA MARINA AIGINAS (AGIA MARINA AIGINAS),GRC,23.53808594,37.74407959,agia marina aiginas (agia marina aiginas),,,,,left_only,14.245605471,-19.257019040000003,33.502624511,
AGIA MARINA FTHIOTIDAS (AGIA MARINA FTHIOTIDAS),GRC,22.5976567,38.9031587,agia marina fthiotidas (agia marina fthiotidas),,,,,left_only,-0.9404292399999967,1.1590791100000004,2.099508349999997,
AGIA PELAGIA (AGIA PELAGIA),GRC,22.977356,36.326195,agia pelagia (agia pelagia),,,,,left_only,0.37969929999999863,-2.5769637000000003,2.956662999999999,
AGIA ROUMELI CHANION (AGIA ROIMELI XANION),GRC,23.9656355,35.24078,agia roumeli chanion (agia roimeli xanion),,,,,left_only,0.9882795000000009,-1.0854149999999976,2.0736944999999984,
AGIGEA,ROU,28.64207241,44.09458487,agigea,,,,,left_only,4.67643691,8.853804869999998,13.530241779999997,
AGII THEODORI (AGIOI THEODOROI),GRC,23.11650224,37.91755922,agii theodori (agioi theodoroi),,,,,left_only,-5.525570170000002,-6.177025649999997,11.702595819999999,
AGIOI OIL TERMINAL,GRC,22.116667,37.016667,agioi oil terminal,,,,,left_only,-0.9997914399999992,-0.9008864900000049,1.900677930000004,
AGIOKAMPOS LARISSAS (AGIOKAMPOS LARISAS),GRC,22.8763845,39.693783,agiokampos larissas (agiokampos larisas),,,,,left_only,0.7597175000000007,2.677116000000005,3.436833500000006,
AGIOS EYSTRATIOS LESVOU (AGIOS EISTRATIOS LESBOI),GRC,25.0,39.51666667,agios eystratios lesvou (agios eistratios lesboi),,,,,left_only,2.1236154999999997,-0.17711633000000404,2.3007318300000037,
AGIOS KONSTANTINOS (AGIOS KONSTANTINOS),GRC,22.8564605,38.755039,agios konstantinos (agios konstantinos),,,,,left_only,-2.1435394999999993,-0.7616276700000029,2.905167170000002,
AGIOS KYRIKOS (AGIOS KIRIKOS),GRC,26.23333333,37.58333333,agios kyrikos (agios kirikos),,,,,left_only,3.37687283,-1.1717056699999944,4.548578499999994,
AGIOS NIKOLAOS CRETA (AGIOS NIKOLAOS KRITIS),GRC,25.71242357,35.18475614,agios nikolaos creta (agios nikolaos kritis),,,,,left_only,-0.5209097600000021,-2.3985771900000046,2.9194869500000067,
AGIOS NIKOLAOS FOKIDAS (AGIOS NIKOLAOS FOKIDAS),GRC,22.16070557,38.34613037,agios nikolaos fokidas (agios nikolaos fokidas),,,,,left_only,-3.5517179999999975,3.16137423,6.713092229999997,
AGISTRI AIGINAS (AGKISTRI AIGINAS),GRC,23.346403,37.710842,agistri aiginas (agkistri aiginas),,,,,left_only,1.1856974299999976,-0.6352883699999978,1.8209857999999954,
AGRIA VOLOU (AGRIA BOLOI),GRC,23.01271057,39.34058762,agria volou (agria boloi),,,,,left_only,-0.33369242999999926,1.6297456200000013,1.9634380500000006,
AGUADILLA,PRI,-67.1549,18.42853387,aguadilla,Aguadilla,Puerto Rico,18.433333,-67.15,both,-90.16761057,-20.912053750000002,111.07966431999999,PRI
AGUADULCE,PAN,-80.4757,8.215833868,aguadulce,,,,,left_only,-13.320800000000006,-10.212700001999998,23.533500002000004,
AGUATHUNA (PORT AU PORT),CAN,-58.6536,48.753434,aguathuna (port au port),,,,,left_only,21.822100000000006,40.537600131999994,62.359700132,
AGUILAS,ESP,-1.565359334,37.40423795,aguilas,Aguilas,Spain,37.4,-1.566667,both,57.088240666,-11.349196049999996,68.437436716,ESP
AHOUSAT,CAN,-126.066667,49.283333,ahousat,Ahousat,Canada,49.283333,-126.066667,both,-124.501307666,11.879095049999997,136.380402716,CAN
AHUKINI LANDING,USA,-159.333333,22.0,ahukini landing,Ahukini Landing,United States,22.0,-159.333333,both,-33.266666000000015,-27.283333,60.549999000000014,USA
AHUS,SWE,14.31928452,55.92901716,ahus,Ahus,Sweden,55.9275,14.328055556,both,173.65261752,33.92901716,207.58163468,SWE
AIGIALI AMORGOU (AIGIALI AMORGOI),GRC,25.9692902,36.8973237,aigiali amorgou (aigiali amorgoi),,,,,left_only,11.65000568,-19.03169346,30.68169914,
AIGIO,GRC,22.10000044,38.25000025,aigio,Aigio,Greece,38.25,22.083333,both,-3.869289760000001,1.3526765499999982,5.221966309999999,GRC
AIN EL MRAISSE _EL JISR,LBN,35.49545555,33.90227502,ain el mraisse _el jisr,,,,,left_only,13.395455110000004,-4.347725230000002,17.743180340000006,
AIN SUKHNA,EGY,32.3929,29.51943387,ain sukhna,,,,,left_only,-3.0760000000000005,-4.379100000000001,7.455100000000002,
AINOURA,JPN,129.6309,33.187634,ainoura,,,,,left_only,97.26423299999999,3.604301000000003,100.868534,
AIOI,JPN,134.46139,34.78672,aioi,Aioi,Japan,34.783333,134.466667,both,4.8304899999999975,1.5990859999999998,6.429575999999997,JPN
AITAPE,PNG,142.351516,-3.143731,aitape,,,,,left_only,7.890126000000009,-37.930451000000005,45.820577000000014,
AITH (SHETLAND ISLANDS),GBR,-1.3775495,60.284287,aith (shetland islands),,,,,left_only,-143.7290655,63.428018,207.1570835,
AIYION,GRC,22.083333,38.25,aiyion,,,,,left_only,23.4608825,-22.034287,45.4951695,
AJACCIO,FRA,8.740877568,41.92521864,ajaccio,,,,,left_only,-13.342455432,3.675218639999997,17.017674072,
AJMAN,ARE,55.4573,25.41093387,ajman,Ajman,United Arab Emirates,25.416667,55.433333,both,46.716422431999995,-16.514284769999996,63.23070720199999,ARE
AKA,MLI,-4.236340155,15.40051966,aka,,,,,left_only,-59.693640155,-10.01041421,69.70405436499999,
AKAROA,NZL,172.966667,-43.8,akaroa,Akaroa,New Zealand,-43.8,172.966667,both,177.203007155,-59.20051966,236.403526815,NZL
AKDENIZ,TUR,30.608741,36.836206,akdeniz,,,,,left_only,-142.3470894,80.643706,222.99079539999997,
AKETI,COD,23.7661,2.728833868,aketi,,,,,left_only,-6.842640999999997,-34.107372131999995,40.950013131999995,
AKHOTOPOL,BGR,27.9487842,42.1005592,akhotopol,,,,,left_only,4.182684199999997,39.371725332,43.554409531999994,
AKITA,JPN,140.0817,39.728234,akita,,,,,left_only,112.1329158,-2.372325199999999,114.50524100000001,
AKITA-FUNAKAWA KO,JPN,140.0,39.833333,akita-funakawa ko,Akita-Funakawa Ko,Japan,39.781388889,140.015,both,-0.0817000000000121,0.10509900000000272,0.18679900000001481,JPN
AKKESHI,JPN,144.8621,43.034934,akkeshi,,,,,left_only,4.862099999999998,3.2016009999999966,8.063700999999995,
,NGA,6.816667,3.133333,akpo oil terminal,Akpo Oil Terminal,Nigeria,3.133333,6.816667,right_only,-138.045433,-39.901601,177.947034,NGA
AKRA KAVONISI,GRC,23.633333,35.516667,akra kavonisi,Akra Kavonisi,Greece,35.516667,23.633333,both,16.816666,32.383334,49.2,GRC
AKRAHAMN,NOR,5.183333,59.266667,akrahamn,Akrahamn,Norway,59.266667,5.183333,both,-18.45,23.75,42.2,NOR
AKRANES,ISL,-22.08515183,64.31410867,akranes,,,,,left_only,-27.268484830000002,5.047441669999998,32.3159265,
AKROTIRI,CYP,33.03295298,34.57202223,akrotiri,,,,,left_only,55.11810481,-29.742086439999994,84.86019124999999,
AKSAZ LIMANI,TUR,28.383333,36.833333,aksaz limani,Aksaz Limani,Turkey,36.833333,28.383333,both,-4.649619979999997,2.2613107700000015,6.910930749999999,TUR
AKTAU,KAZ,51.20812988,43.59869385,aktau,,,,,left_only,22.82479688,6.765360849999993,29.590157729999994,
AKULA,COD,20.1971,2.385033868,akula,,,,,left_only,-31.011029880000002,-41.213659981999996,72.22468986199999,
AKUNE HARBOR,JPN,130.1873969,32.02361111,akune harbor,,,,,left_only,109.9902969,29.638577241999997,139.628874142,
AKUREYRI,ISL,-18.09025369,65.69214621,akureyri,Akureyri,Iceland,65.683333,-18.083333,both,-148.27765059,33.66853510000001,181.94618569000002,ISL
AKUTAN,USA,-165.7984,54.13253387,akutan,,,,,left_only,-147.70814631,-11.559612340000001,159.26775865,
AL AHMADI,YEM,42.966667,14.833333,al ahmadi,Al Ahmadi,Yemen,14.833333,42.966667,both,208.766667,-39.3,248.066667,YEM
AL AQABAH,JOR,35.0,29.516667,al aqabah,Al Aqabah,Jordan,29.516667,35.0,both,-7.966667000000001,14.683334000000002,22.650001000000003,JOR
AL BASRAH,IRQ,47.833333,30.516667,al basrah,Al Basrah,Iraq,30.516667,47.833333,both,12.833333000000003,1.0,13.833333000000003,IRQ
AL BURAYQAH,LBY,19.6,30.416667,al burayqah,Al Burayqah,Libya,30.416667,19.6,both,-28.233333000000002,-0.10000000000000142,28.333333000000003,LBY
,ARE,56.369166667,25.173055556,al fujayrah,Al Fujayrah,United Arab Emirates,25.173055556,56.369166667,right_only,36.769166667,-5.243611443999999,42.012778111,ARE
AL HAMRIYAH LPG TERMINAL,ARE,55.483333,25.466667,al hamriyah lpg terminal,Al Hamriyah Lpg Terminal,United Arab Emirates,25.466667,55.483333,both,-0.885833667,0.2936114439999997,1.1794451109999997,ARE
AL HOCEIMA,MAR,-3.9107,35.257034,al hoceima,,,,,left_only,-59.394033,9.790366999999996,69.1844,
AL ISKANDARIYH (ALEXANDRIA),EGY,29.833333,31.166667,al iskandariyh (alexandria),Al Iskandariyh (Alexandria),Egypt,31.166667,29.833333,both,33.744033,-4.090366999999997,37.8344,EGY
AL JAZEERA PORT,ARE,55.783333,25.716667,al jazeera port,Al Jazeera Port,United Arab Emirates,25.716667,55.783333,both,25.95,-5.449999999999999,31.4,ARE
AL JUBAYL,SAU,49.666667,27.083333,al jubayl,Al Jubayl,Saudi Arabia,27.083333,49.666667,both,-6.116666000000002,1.3666659999999986,7.483332000000001,SAU
AL KHAIR OIL TERMINAL,SDN,37.25,19.583333,al khair oil terminal,Al Khair Oil Terminal,Sudan,19.583333,37.25,both,-12.416666999999997,-7.5,19.916666999999997,SDN
AL KHOBAR,SAU,50.2257,26.27583387,al khobar,,,,,left_only,12.975700000000003,6.69250087,19.668200870000003,
AL KHOMS,LBY,14.27386,32.654645,al khoms,,,,,left_only,-35.951840000000004,6.3788111300000025,42.33065113000001,
AL KUWAYT,KWT,47.933333,29.35,al kuwayt,Al Kuwayt,Kuwait,29.35,47.933333,both,33.659473,-3.3046450000000007,36.964118,KWT
AL LADHIQIYAH,SYR,35.766667,35.533333,al ladhiqiyah,Al Ladhiqiyah,Syria,35.533333,35.766667,both,-12.166666,6.1833329999999975,18.349998999999997,
AL MANAMAH,BHR,50.583333,26.233333,al manamah,Al Manamah,Bahrain,26.233333,50.583333,both,14.816666000000005,-9.3,24.116666000000006,BHR
AL MUKALLA,YEM,49.116667,14.516667,al mukalla,Al Mukalla,Yemen,14.516667,49.116667,both,-1.4666660000000036,-11.716665999999998,13.183332000000002,YEM
AL MUKHA,YEM,43.25,13.316667,al mukha,Al Mukha,Yemen,13.316667,43.25,both,-5.866667,-1.1999999999999993,7.066666999999999,YEM
AL QUSAYR,EGY,34.283333,26.1,al qusayr,Al Qusayr,Egypt,26.1,34.283333,both,-8.966667000000001,12.783333,21.75,EGY
AL RAYYAN TERMINAL,QAT,51.55,26.65,al rayyan terminal,Al Rayyan Terminal,Qatar,26.65,51.55,both,17.266666999999998,0.5499999999999972,17.816666999999995,QAT
AL SHAHEEN TERMINAL,QAT,52.0,26.583333,al shaheen terminal,Al Shaheen Terminal,Qatar,26.583333,52.0,both,0.45000000000000284,-0.06666699999999892,0.5166670000000018,QAT
AL-BASRA OIL TERMINAL,IRN,48.816667,29.683333,al-basra oil terminal,Al-Basra Oil Terminal,Iraq,29.683333,48.816667,both,-3.1833329999999975,3.1000000000000014,6.283332999999999,IRQ
AL-TOUR,EGY,33.61310005,28.23744342,al-tour,,,,,left_only,-15.203566950000003,-1.4458895799999993,16.649456530000002,
ALA,SWE,17.16168213,61.21429443,ala,,,,,left_only,-16.45141792,32.976851010000004,49.42826893,
ALABASTER,USA,-83.55,44.183333,alabaster,Alabaster,United States,44.183333,-83.54999999999998,both,-100.71168213,-17.030961430000005,117.74264356,USA
ALAMEDA,USA,-122.266667,37.783333,alameda,Alameda,United States,37.783333,-122.266667,both,-38.716667,-6.399999999999999,45.116667,USA
ALANYA,TUR,32.0,36.533333,alanya,Alanya,Turkey,36.533333,32.0,both,154.26666699999998,-1.25,155.51666699999998,TUR
ALBANY,AUS,117.883333,-35.033333,albany,Albany,United States,42.65,-73.75,both,85.883333,-71.566666,157.449999,USA
ALBERTON,CAN,-64.066667,46.8,alberton,,,,,left_only,-181.95,81.833333,263.78333299999997,
ALBLASSERDAM,NLD,4.647888184,51.8638916,alblasserdam,,,,,left_only,68.71455518399999,5.063891600000005,73.778446784,
ALBORG,DNK,9.933333,57.05,alborg,Alborg,Denmark,57.05,9.933333,both,5.285444815999999,5.186108399999995,10.471553215999993,DNK
ALCACER,ESP,0.5161,40.530234,alcacer,,,,,left_only,-9.417233,-16.519765999999997,25.936998999999997,
ALCAN HARBOR,USA,174.066667,52.733333,alcan harbor,Alcan Harbor,United States,52.733333,174.066667,both,173.550567,12.203099000000002,185.753666,USA
ALCANAR,ESP,0.551295428,40.57227995,alcanar,,,,,left_only,-173.515371572,-12.16105305,185.67642462199998,
ALCUDIA,ESP,3.137562549,39.83749923,alcudia,,,,,left_only,2.586267121,-0.7347807200000034,3.3210478410000035,
ALDERNEY,GGY,-2.206324585,49.73139453,alderney,,,,,left_only,-5.343887134,9.893895300000004,15.237782434000003,
ALEKSANDROVSK -SAKHALINSKIY,RUS,142.133333,50.9,aleksandrovsk -sakhalinskiy,Aleksandrovsk -Sakhalinskiy,Russia,50.9,142.133333,both,144.33333299999998,1.1666669999999968,145.49999999999997,RUS
ALEMOA TERMINAL,BRA,-46.33333333,-24.02361111,alemoa terminal,,,,,left_only,-188.46666633,-74.92361111,263.39027744,
ALERT BAY,CAN,-126.933333,50.583333,alert bay,Alert Bay,Canada,50.583333,-126.933333,both,-80.59999967,74.60694411,155.20694378000002,CAN
ALESUND,NOR,6.166667,62.466667,alesund,Alesund,Norway,62.466667,6.166667,both,133.1,11.883333999999998,144.98333399999999,NOR
ALEXANDRIA,EGY,29.88146288,31.19534167,alexandria,Alexandria,United States,38.8,-77.033333,both,23.71479588,-31.27132533,54.98612121,USA
ALEXANDRIA BAY,USA,-75.916667,44.333333,alexandria bay,Alexandria Bay,United States,44.333333,-75.916667,both,-105.79812988,13.137991330000002,118.93612121000001,USA
ALEXANDROUPOLI,GRC,25.883333,40.833333,alexandroupoli,Alexandroupoli,Greece,40.833333,25.883333,both,101.80000000000001,-3.5,105.30000000000001,GRC
ALGECIRAS,ESP,-5.417815917,36.14129331,algeciras,Algeciras,Spain,36.133333,-5.433333,both,-31.301559147,-4.701395689999998,36.002954837,ESP
ALGER,DZA,3.063903809,36.78668213,alger,Alger,Algeria,36.766667,3.066667,both,8.481719726000001,0.6453888200000009,9.127108546000002,DZA
ALGHERO,ITA,8.314621453,40.56073274,alghero,Alghero,Italy,40.568,8.307,both,5.250717644000001,3.774050609999996,9.024768253999998,ITA
ALGIERS,DZA,3.063903809,36.78668213,algiers,,,,,left_only,-5.250717644000001,-3.774050609999996,9.024768253999998,
ALGOMA,USA,-87.433333,44.6,algoma,Algoma,United States,44.6,-87.433333,both,-90.497236809,7.813317869999999,98.310554679,USA
ALGONA,CAN,-82.5183,42.616534,algona,,,,,left_only,4.915033000000008,-1.983466,6.898499000000008,
ALGORTA,ESP,-3.018774624,43.33969514,algorta,,,,,left_only,79.497892376,0.7230281400000038,80.220920516,
ALIAGA,TUR,26.933333,38.833333,aliaga,Aliaga,Turkey,38.833333,26.933333,both,29.952107624,-4.50636214,34.458469764,TUR
ALICANTE,ESP,-0.490863184,38.33573316,alicante,Alicante,Spain,38.333333,-0.483333,both,-27.424196184,-0.49759984000000657,27.921796024000006,ESP
ALICUDI,ITA,14.36151123,38.534729,alicudi,,,,,left_only,14.852374414,0.19899584000000203,15.051370254000002,
ALIVERIO (ALIBERIO),GRC,24.03403903,38.40401277,aliverio (aliberio),,,,,left_only,9.6725278,-0.13071622999999732,9.803244029999997,
ALLARDYCE HARBOUR,SLB,158.6565,-7.787466132,allardyce harbour,,,,,left_only,134.62246097,-46.191478902,180.813939872,
ALLEN,PHL,124.284352,12.504558,allen,,,,,left_only,-34.372147999999996,20.292024131999998,54.66417213199999,
ALLEPPEY,IND,76.3175,9.495733868,alleppey,,,,,left_only,-47.966852,-3.008824131999999,50.975676132000004,
ALLIANCE,USA,-89.9616,29.66243387,alliance,,,,,left_only,-166.2791,20.166700002,186.445800002,
ALLIFORD BAY,CAN,-131.983333,53.216667,alliford bay,Alliford Bay,Canada,53.216667,-131.983333,both,-42.02173299999998,23.55423313,65.57596612999998,CAN
ALMERIA,ESP,-2.473142784,36.83359341,almeria,Almeria,Spain,36.833333,-2.466667,both,129.51019021599998,-16.383073590000002,145.893263806,ESP
ALMIRANTE,PAN,-82.4,9.3,almirante,Almirante,Panama,9.3,-82.4,both,-79.926857216,-27.533593409999998,107.460450626,PAN
ALMYROS (AMALIAPOLI) VOLOU (ALMIROS BOLOI),GRC,22.76142883,39.1851387,almyros (amaliapoli) volou (almiros boloi),,,,,left_only,105.16142883,29.885138700000002,135.04656753,
ALOFI,NZL,-169.933333,-19.033333,alofi,Alofi,Niue,-19.033333,-169.933333,both,-192.69476183,-58.2184717,250.91323353,NIU
ALONISSOS (ALONISSOS),GRC,23.84568,39.1503905,alonissos (alonissos),,,,,left_only,193.77901300000002,58.1837235,251.9627365,
ALOTAU,PNG,150.4511,-10.308666,alotau,,,,,left_only,126.60542,-49.4590565,176.0644765,
ALPENA,USA,-83.416667,45.066667,alpena,Alpena,United States,45.066667,-83.416667,both,-233.866667,55.383334000000005,289.250001,USA
ALSEN,USA,-73.8738,42.22553387,alsen,,,,,left_only,9.542867000000001,-2.841133130000003,12.384000130000004,
ALTA,NOR,23.25,69.966667,alta,Alta,Norway,69.973333333,23.235277778,both,97.1238,27.74113313,124.86493313,NOR
ALTAMIRA,MEX,-97.85,22.483333,altamira,Altamira,Mexico,22.483333,-97.85,both,-121.1,-47.483334,168.58333399999998,MEX
ALUSHTA,UKR,34.416667,44.683333,alushta,Alushta,Ukraine,44.683333,34.416667,both,132.26666699999998,22.2,154.46666699999997,UKR
ALVARADO,MEX,-95.7433,18.80133387,alvarado,,,,,left_only,-130.159967,-25.881999129999997,156.04196613,
ALVENAS,SWE,13.18151856,59.36853027,alvenas,,,,,left_only,108.92481856,40.5671964,149.49201496,
AMA,USA,-89.7,29.93333333,ama,,,,,left_only,-102.88151856,-29.43519694,132.31671550000002,
AMAGASAKI,JPN,135.3997,34.700634,amagasaki,Amagasaki,Japan,34.7,135.383333,both,225.09969999999998,4.767300670000001,229.86700066999998,JPN
AMAL,SWE,12.71270752,59.05389404,amal,,,,,left_only,-122.68699248,24.353260040000002,147.04025252,
AMALFI,ITA,14.6183,40.643934,amalfi,,,,,left_only,1.9055924799999993,-18.40996004,20.31555252,
AMAMAPARE,IDN,136.8406824,-4.826525568,amamapare,Amamapare,Indonesia,-4.816667,136.966667,both,122.22238239999999,-45.470459568,167.69284196799998,IDN
AMAMIOSHIMA,JPN,130.5651,31.563934,amamioshima,,,,,left_only,-6.2755823999999905,36.390459568,42.66604196799999,
AMAPALA,HND,-87.6434,13.30903387,amapala,,,,,left_only,-218.20850000000002,-18.25490013,236.46340013000003,
AMASRA,TUR,32.3933576,41.74945001,amasra,,,,,left_only,120.0367576,28.440416139999996,148.47717374,
AMBAHY,MDG,48.47514588,-20.77491168,ambahy,,,,,left_only,16.081788279999998,-62.52436168999999,78.60614996999999,
AMBALAVONTAKA,MDG,48.32348001,-21.32882088,ambalavontaka,,,,,left_only,-0.1516658700000022,-0.5539091999999997,0.7055750700000019,
AMBARCHIK,RUS,162.316667,69.633333,ambarchik,,,,,left_only,113.99318699,90.96215387999999,204.95534087,
AMBARLI,TUR,28.7,40.966667,ambarli,Ambarli,Turkey,40.966667,28.7,both,-133.616667,-28.666665999999992,162.283333,TUR
AMBAVAN'I SAHAVATO,MDG,48.42491157,-20.50197777,ambavan'i sahavato,,,,,left_only,19.72491157,-61.46864477,81.19355634,
,DOM,-70.766666667,19.833333333,amber cove,Amber Cove,Dominican Republic,19.833333333,-70.766666667,right_only,-119.19157823699999,40.335311102999995,159.52688933999997,DOM
AMBES,FRA,-0.533333,45.016667,ambes,Ambes,France,45.016667,-0.533333,both,70.233333667,25.183333667,95.416667334,FRA
AMBILA LEMAITSO,MDG,49.14644288,-18.85831493,ambila lemaitso,,,,,left_only,49.67977588,-63.87498193,113.55475781,
AMBLE,GBR,-1.596014551,55.33075064,amble,,,,,left_only,-50.742457431000005,74.18906557,124.931523001,
AMBODIHARINA,MDG,48.7686288,-20.00965308,ambodiharina,,,,,left_only,50.364643351000005,-75.34040372,125.705047071,
AMBODISAINA,MDG,48.49998544,-20.53334644,ambodisaina,,,,,left_only,-0.26864335999999867,-0.5236933599999993,0.792336719999998,
AMBOHITSARA,MDG,48.46137518,-20.86536832,ambohitsara,,,,,left_only,-0.03861026000000578,-0.33202188000000277,0.37063214000000855,
AMBON,IDN,128.166667,-3.683333,ambon,Ambon,Indonesia,-3.683333,128.166667,both,79.70529181999999,17.18203532,96.88732713999998,IDN
AMBRIZ,AGO,13.1149,-7.848366,ambriz,,,,,left_only,-115.05176699999998,-4.165033,119.21679999999998,
AMELAND,NLD,5.61529541,53.44207764,ameland,,,,,left_only,-7.499604590000001,61.29044364,68.79004823,
AMFILOCHIA (AMFILOXIA),GRC,21.1640455,38.8600195,amfilochia (amfiloxia),,,,,left_only,15.54875009,-14.582058140000001,30.13080823,
AMHERSTBURG,CAN,-83.1075,42.097934,amherstburg,Amherstburg,Canada,42.1,-83.09999999999998,both,-104.2715455,3.2379145000000022,107.50946,CAN
AMIRABAD,IRN,53.31111,36.84111,amirabad,,,,,left_only,136.41861,-5.256824000000002,141.675434,
,GRL,-37.616666667,65.616666667,ammassalik,Ammassalik,Greenland,65.616666667,-37.616666667,right_only,-90.92777666699999,28.775556667000004,119.70333333399999,GRL
AMOLIANI (AMOLIANI),GRC,23.91666667,40.33333333,amoliani (amoliani),,,,,left_only,61.533333337,-25.283333337000002,86.816666674,
AMORGOS,GRC,25.8975695,36.8316385,amorgos,,,,,left_only,1.980902829999998,-3.5016948300000053,5.482597660000003,
AMPANOTOAMAIZINA,MDG,49.19992225,-18.70004469,ampanotoamaizina,,,,,left_only,23.29361122,-55.52493483,78.81854605,
AMPENAN,IDN,116.066667,-8.566667,ampenan,Ampenan,Indonesia,-8.566667,116.066667,both,66.86674475,10.133377689999998,77.00012244,IDN
AMRUM I.,DEU,8.38092041,54.63287353,amrum i.,,,,,left_only,-107.68574659,63.19954053,170.88528712,
AMSTERDAM,NLD,4.847057423,52.39838909,amsterdam,Amsterdam,Netherlands,52.366667,4.9,both,-3.533862987,-2.2344844399999957,5.768347426999996,NLD
AMUAY,VEN,-70.237,11.76943387,amuay,,,,,left_only,-75.08405742299999,-40.62895522,115.71301264299998,
ANACORTES,USA,-122.616667,48.516667,anacortes,Anacortes,United States,48.516667,-122.616667,both,-52.383334000000005,36.766667,89.150001,USA
ANADYR,RUS,177.5198975,64.7376709,anadyr,,,,,left_only,300.1365645,16.2210039,316.3575684,
ANAFI KYKLADES (ANAFI KIKLADON),GRC,25.7681065,36.351631,anafi kyklades (anafi kikladon),,,,,left_only,-151.75179100000003,-28.3860399,180.13783090000004,
ANAKITAINA,MDG,48.26671777,-21.51642499,anakitaina,,,,,left_only,22.49861127,-57.86805599,80.36666726,
ANAMUR,TUR,32.8577,36.05263387,anamur,,,,,left_only,-15.409017769999998,57.56905886,72.97807663,
ANAN,JPN,134.6883,33.929034,anan,,,,,left_only,101.8306,-2.1235998699999996,103.95419987,
ANAPA,RUS,37.316667,44.883333,anapa,Anapa,Russia,44.883333,37.316667,both,-97.371633,10.954298999999999,108.325932,RUS
ANCHORAGE,USA,-149.9,61.216667,anchorage,Anchorage,United States,61.216667,-149.9,both,-187.216667,16.333334,203.550001,USA
ANCONA,ITA,13.49808255,43.61583664,ancona,Ancona,Italy,43.629,13.494,both,163.39808255,-17.600830360000003,180.99891291,ITA
ANDALSNES,NOR,7.683333,62.566667,andalsnes,Andalsnes,Norway,62.568055556,7.677222222,both,-5.814749549999999,18.950830360000005,24.765579910000003,NOR
ANDENES,NOR,16.133333,69.333333,andenes,Andenes,Norway,69.328333333,16.127777778,both,8.45,6.766665999999994,15.216665999999993,NOR
ANDERNACH,DEU,7.427300833,50.44144818,andernach,,,,,left_only,-8.706032167,-18.891884819999994,27.597916986999994,
ANDERNOS-LES-BAINS,FRA,-1.112652563,44.74442881,andernos-les-bains,,,,,left_only,-8.539953396,-5.69701937,14.236972766,
ANDERSEN HARBOR,ATA,-62.933333,-64.316667,andersen harbor,Andersen Harbor,Antarctica,-64.316667,-62.933333,both,-61.820680437,-109.06109581,170.881776247,ATA
ANDOANY,MDG,48.3,-13.4,andoany,Andoany,Madagascar,-13.4,48.3,both,111.23333299999999,50.916667,162.14999999999998,MDG
ANDRANOKODITRA,MDG,49.25,-18.6,andranokoditra,,,,,left_only,0.9500000000000028,-5.200000000000001,6.150000000000004,
ANDRANOMAHITSY,MDG,48.45022877,-20.91668263,andranomahitsy,,,,,left_only,-0.7997712299999975,-2.316682629999999,3.1164538599999965,
ANDRES (ANDRES LGN TERMINAL),DOM,-69.633333,18.433333,andres (andres lgn terminal),,,,,left_only,-118.08356176999999,39.35001563,157.4335774,
ANDROKA,MDG,44.0651,-25.00846613,androka,,,,,left_only,113.698433,-43.44179913,157.14023213,
ANDROS,GRC,24.95,37.833333,andros,Andros,Greece,37.833333,24.95,both,-19.1151,62.84179913,81.95689913,GRC
ANDROS TOWN,BHS,-77.8025,24.711734,andros town,,,,,left_only,-102.7358,-13.126648500000002,115.8624485,
ANECHO,TGO,1.5851,6.216534,anecho,,,,,left_only,79.38759999999999,-18.4952,97.88279999999999,
ANEGADA,VGB,-64.38134631,18.72229657,anegada,,,,,left_only,-65.96644631,12.505762570000002,78.47220888,
ANELGAOHAT,VUT,169.774727,-20.248139,anelgaohat,,,,,left_only,234.15607331,-38.97043557,273.12650888,
ANEVORANTO,MDG,49.10826279,-18.95493642,anevoranto,,,,,left_only,-120.66646421000002,1.293202579999999,121.95966679000001,
ANEWAY BAY,PNG,155.5411,-6.193466132,aneway bay,,,,,left_only,106.43283721,12.761470287999998,119.194307498,
ANGAUR,PLW,134.1347046,6.90447998,angaur,,,,,left_only,-21.406395400000008,13.097946111999999,34.50434151200001,
ANGO-ANGO,COD,13.433355,-5.844061,ango-ango,,,,,left_only,-120.70134959999999,-12.74854098,133.44989058,
ANGOCHE,MOZ,39.9145,-16.24656613,angoche,,,,,left_only,26.481144999999998,-10.402505130000002,36.88365013,
ANGRA DO HEROISMO,PRT,-27.216667,38.65,angra do heroismo,Angra Do Heroismo,Portugal,38.65,-27.216667,both,-67.131167,54.89656613,122.02773313,PRT
ANGRA DOS REIS,BRA,-44.3089,-23.013766,angra dos reis,Angra Dos Reis,Brazil,-23.016667,-44.316667,both,-17.092233,-61.663765999999995,78.755999,BRA
ANHOLT,DNK,11.51669985,56.71670139,anholt,,,,,left_only,55.82559985,79.73046739,135.55606724,
ANKAREFO,MDG,49.32569109,-18.40813063,ankarefo,,,,,left_only,37.81880063,-75.12368619,112.94248682,
ANKINGCHENG,CHN,117.033333,30.516667,ankingcheng,Ankingcheng,China,30.516667,117.033333,both,67.70764191,48.92479763,116.63243954000001,CHN
ANKLAM,DEU,13.69348144,53.86010742,anklam,,,,,left_only,-103.33985156,23.343440419999997,126.68329197999999,
ANKORO,COD,26.950872,-6.746471,ankoro,,,,,left_only,13.257390560000001,-60.60657842,73.86396898,
ANNABA,DZA,7.7809,36.90793387,annaba,Annaba,Algeria,36.916667,7.766667,both,-19.169972,43.65440487,62.82437687,DZA
ANNAPOLIS,USA,-76.483333,38.983333,annapolis,Annapolis,United States,38.983333,-76.483333,both,-84.264233,2.075399130000001,86.33963213000001,USA
ANNAPOLIS ROYAL,CAN,-65.516667,44.75,annapolis royal,,,,,left_only,10.966666000000004,5.766666999999998,16.733333000000002,
ANNICET / NTANTU,COD,18.6146,-4.52802,annicet / ntantu,,,,,left_only,84.131267,-49.27802,133.409287,
ANQING,CHN,117.0393,30.49393387,anqing,,,,,left_only,98.4247,35.02195387,133.44665387,
ANSE DE MIQUELON,SPM,-56.366667,47.1,anse de miquelon,,,,,left_only,-173.405967,16.606066130000002,190.01203313000002,
ANSE TEMBLADORA,TTO,-61.583333,10.683333,anse tembladora,Anse Tembladora,Trinidad and Tobago,10.683333,-61.583333,both,-5.216666000000004,-36.416667000000004,41.63333300000001,TTO
ANSE-D'HAINAULT,HTI,-74.447479,18.486121,anse-d'hainault,,,,,left_only,-12.864145999999998,7.802788000000001,20.666933999999998,
ANTALAHA,MDG,50.28237429,-14.90110963,antalaha,,,,,left_only,124.72985329,-33.387230630000005,158.11708392,
ANTALYA,TUR,30.616667,36.833333,antalya,Antalya,Turkey,36.833333,30.616667,both,-19.66570729,51.734442630000004,71.40014992,TUR
ANTAN OIL TERMINAL,NGA,8.333333,4.216667,antan oil terminal,Antan Oil Terminal,Nigeria,4.216667,8.333333,both,-22.266667,-32.599999669999995,54.86666667,NGA
ANTENAL,HRV,13.5554247,45.3169922,antenal,,,,,left_only,5.223324699999999,41.108058332,46.331383032,
ANTIBES,FRA,7.126935773,43.58671852,antibes,Antibes,France,43.583333,7.133333,both,-6.428488927,-1.7302736800000034,8.158762607000003,FRA
ANTIKYRA (ANTIKIRA),GRC,22.6324865,38.378769,antikyra (antikira),,,,,left_only,15.505550727,-5.20794952,20.713500247,
ANTILLA,CUB,-75.74249,20.824115,antilla,Antilla,Cuba,20.833333,-75.733333,both,-98.3749765,-17.554654,115.9296305,CUB
ANTIOCH,USA,-121.8,38.016667,antioch,Antioch,United States,38.016667,-121.8,both,-46.05750999999999,17.192552,63.25006199999999,USA
ANTIPAROS (ANTIPAROS),GRC,25.04999953,36.99999965,antiparos (antiparos),,,,,left_only,146.84999953,-1.0166673499999987,147.86666688,
ANTIRIO (ANTIRIO),GRC,21.763687,38.33128,antirio (antirio),,,,,left_only,-3.28631253,1.3312803500000001,4.61759288,
ANTISRANANA,MDG,49.283333,-12.266667,antisranana,,,,,left_only,27.519645999999998,-50.597947,78.117593,
ANTOFAGASTA,CHL,-70.4037,-23.649566,antofagasta,Antofagasta,Chile,-23.65,-70.416667,both,-119.687033,-11.382899,131.069932,CHL
ANTONINA,BRA,-48.7021,-25.444066,antonina,,,,,left_only,21.7016,-1.7944999999999993,23.4961,
ANTSIRAMIHANANA,MDG,49.0,-19.2,antsiramihanana,,,,,left_only,97.7021,6.244066,103.946166,
ANTSIRANANA,MDG,49.28512916,-12.27508709,antsiranana,Antsiranana,Madagascar,-12.266667,49.283333,both,0.2851291599999968,6.92491291,7.2100420699999965,MDG
ANTSOHILY,MDG,47.97786067,-14.87936871,antsohily,,,,,left_only,-1.3072684899999985,-2.60428162,3.9115501099999985,
ANTSOHIM BONDRONA,MDG,48.833333,-13.083333,antsohim bondrona,Antsohim Bondrona,Madagascar,-13.083333,48.833333,both,0.8554723300000049,1.79603571,2.651508040000005,MDG
ANTWERP,BEL,4.33520961,51.27510894,antwerp,,,,,left_only,-44.49812339,64.35844194,108.85656533000001,
,BEL,4.4,51.216667,antwerpen,Antwerpen,Belgium,51.216667,4.4,right_only,0.10624263800000033,-0.08111077999999594,0.18735341799999627,BEL
ANYER LOR,IDN,105.916667,-6.05,anyer lor,Anyer Lor,Indonesia,-6.05,105.916667,both,101.516667,-57.266667,158.783334,IDN
ANZALI,IRN,49.467273,37.476595,anzali,,,,,left_only,-56.449394000000005,43.526595,99.975989,
ANZIO,ITA,12.63150839,41.44717058,anzio,,,,,left_only,-36.83576461,3.970575579999995,40.80634018999999,
AOKATA,JPN,129.066667,32.983333,aokata,Aokata,Japan,32.983333,129.066667,both,116.429667,-8.462666999999996,124.89233399999999,JPN
AOLA BAY,SLB,160.484594,-9.531439,aola bay,,,,,left_only,31.41792699999999,-42.514772,73.93269899999999,
AOMORI,JPN,140.7665,40.831334,aomori,,,,,left_only,-19.71809399999998,50.362773,70.08086699999998,
APALACHICOLA,USA,-84.983333,29.716667,apalachicola,Apalachicola,United States,29.716667,-84.983333,both,-225.73333300000002,-11.116666330000001,236.84999933,USA
APARRI,PHL,121.6507,18.35633387,aparri,Aparri,Philippines,18.366667,121.633333,both,206.63739022,-11.371166129999999,218.00855635,PHL
APIA,WSM,-171.7553,-13.82426613,apia,Apia,Samoa,-13.816667,-171.766667,both,-293.406,-32.1806,325.5866,WSM
APPINGEDAM,NLD,6.85,53.31666667,appingedam,,,,,left_only,178.6053,67.1409328,245.7462328,
APPLEDORE,GBR,-4.1996765,51.0516675,appledore,,,,,left_only,-11.0496765,-2.264999169999996,13.314675669999996,
APPLETON,USA,-88.4368,44.23683387,appleton,,,,,left_only,-84.23712350000001,-6.8148336300000025,91.05195713,
APRA,MNP,144.6797,13.44373387,apra,,,,,left_only,233.1165,-30.793099999999995,263.9096,
AQABA,JOR,34.998183,29.513744,aqaba,,,,,left_only,-109.66313290000001,16.08564341,125.74877631000001,
ARACAJU,BRA,-37.0531,-10.908066,aracaju,,,,,left_only,-72.05322207,-40.42417928,112.47740135000001,
ARATU,BRA,-38.4557,-12.780866,aratu,Aratu,Brazil,-12.783333,-38.5,both,-1.4025999999999996,-1.8727999999999998,3.2753999999999994,BRA
ARAXOS ('ARAXOS),GRC,21.38427734,38.21447754,araxos ('araxos),,,,,left_only,59.839977340000004,50.99534353999999,110.83532088,
ARAYA,VEN,-64.2826,10.63853387,araya,,,,,left_only,-85.66687734,-27.575943669999997,113.24282101,
ARBATAX,ITA,9.703516433,39.93635214,arbatax,Arbatax,Italy,39.933333,9.7,both,73.986116433,29.297818269999997,103.283934703,ITA
ARBOGA,SWE,15.8507,59.391734,arboga,,,,,left_only,6.147183566999999,19.455381860000003,25.602565427000002,
ARBROATH,GBR,-2.587216342,56.55301589,arbroath,,,,,left_only,-18.437916342,-2.838718110000002,21.276634452000003,
ARCACHON,FRA,-1.148036729,44.66011208,arcachon,,,,,left_only,1.439179613,-11.89290381,13.332083423,
ARDAL/ARDALSTANGEN (I SOGNEFJORDEN),NOR,7.699890137,61.23529053,ardal/ardalstangen (i sognefjorden),,,,,left_only,8.847926866,16.575178450000003,25.423105316000004,
ARDGLASS,GBR,-5.616667,54.266667,ardglass,Ardglass,United Kingdom,54.266667,-5.616667,both,-13.333334,-6.966666000000004,20.300000000000004,GBR
ARDJUNA OIL FIELD,IDN,107.716667,-5.883333,ardjuna oil field,Ardjuna Oil Field,Indonesia,-5.883333,107.716667,both,113.33333400000001,-60.15,173.483334,IDN
ARDRISHAIG,GBR,-5.450997,56.016462,ardrishaig,Ardrishaig,United Kingdom,56.016667,-5.45,both,-113.167664,61.899795,175.06745899999999,GBR
ARDROSSAN,GBR,-4.818044901,55.64203748,ardrossan,Ardrossan,Australia,-34.433333,137.916667,both,0.6329520989999997,-0.37442451999999804,1.0073766189999978,AUS
ARECIBO,PRI,-66.7277,18.47963387,arecibo,Arecibo,Puerto Rico,18.483333,-66.7,both,-61.909655099,-37.16240361,99.072058709,PRI
AREIA BRANCA,BRA,-37.1452,-4.982166,areia branca,,,,,left_only,29.582499999999996,-23.46179987,53.044299869999996,
ARENDAL,NOR,8.766667,58.466667,arendal,Arendal,Norway,58.453888889,8.776944444,both,45.911867,63.448833,109.36070000000001,NOR
ARENYS DE MAR,ESP,2.559402333,41.57754607,arenys de mar,,,,,left_only,-6.2072646670000005,-16.889120930000004,23.096385597000005,
ARGENTIA,CAN,-53.9344,47.323934,argentia,Argentia,Canada,47.3,-53.983333,both,-56.493802333,5.7463879300000045,62.240190263,CAN
ARGOSTOLI (ARGOSTOLI),GRC,20.48616537,38.16780134,argostoli (argostoli),,,,,left_only,74.42056536999999,-9.156132660000004,83.57669802999999,
ARGUINEGUIN,ESP,-15.681434,27.7586205,arguineguin,,,,,left_only,-36.16266016,-10.430164519999998,46.59282468,
ARHUS,DNK,10.22792957,56.15181158,arhus,Arhus,Denmark,56.15,10.216667,both,25.90936357,28.39319108,54.302554650000005,DNK
ARICA,CHL,-70.3283,-18.482466,arica,,,,,left_only,-80.55622957,-74.63427758,155.19050715,
ARICHAT,CAN,-61.0221,45.516934,arichat,,,,,left_only,9.306199999999997,63.999399999999994,73.3056,
ARKHANGELS'K,RUS,40.533333,64.533333,arkhangels'k,Arkhangels'k,Russia,64.529722222,40.521666667,both,101.54999966700001,19.016666332999996,120.566666,RUS
ARKITSA FTHIOTIDAS (ARKITSA FTHIOTIDAS),GRC,23.0329495,38.745323,arkitsa fthiotidas (arkitsa fthiotidas),,,,,left_only,-17.468332240000002,-25.81858081,43.28691305,
ARKLOW,IRL,-6.145641652,52.79629147,arklow,,,,,left_only,-29.178591152000003,14.05096847,43.229559622000004,
ARLES,FRA,4.633333333,43.68333333,arles,,,,,left_only,10.776227422000002,-9.090753409999998,19.866980832,
ARMAN,RUS,150.7717,59.561534,arman,,,,,left_only,146.138366667,15.878200669999998,162.01656733700003,
,CAN,-53.981065504,47.764799043,arnold's cove,Arnold's Cove,Canada,47.764799043,-53.981065504,right_only,-204.75276550400002,-11.796734957000005,216.54950046100004,CAN
ARO,DNK,9.730285645,55.26147461,aro,,,,,left_only,63.732229105,7.495085719999999,71.22731482500001,
AROROY,PHL,123.396421,12.51336,aroroy,,,,,left_only,113.66613535500001,-42.74811461,156.414249965,
AROSUND,DNK,9.71307373,55.26147461,arosund,,,,,left_only,-113.68334727,42.74811461,156.43146188,
ARRAN,GBR,-5.15007656,55.57828525,arran,,,,,left_only,-14.86315029,0.3168106399999999,15.17996093,
ARRECIFE,ESP,-13.533333,28.95,arrecife,Arrecife,Spain,28.95,-13.533333,both,-8.38325644,-26.62828525,35.01154169,ESP
ARROYO,PRI,-66.066667,17.966667,arroyo,Arroyo,Puerto Rico,17.966667,-66.066667,both,-52.532473689999996,-11.00145097,63.53392466,PRI
ARSKOGSSANDUR,ISL,-18.3510975,65.9420275,arskogssandur,,,,,left_only,47.715569499999994,47.975360499999994,95.69092999999998,
ARZANAH ISLAND,ARE,52.56408705,24.77980368,arzanah island,,,,,left_only,70.91518454999999,-41.162223819999994,112.07740836999999,
ARZEW,DZA,-0.3053,35.850734,arzew,Arzew,Algeria,35.85,-0.3,both,-52.86938705,11.070930320000002,63.94031737,DZA
AS SIDR,LBY,18.366667,30.633333,as sidr,As Sidr,Libya,30.633333,18.366667,both,18.616667,-5.183334000000002,23.800001,LBY
AS SUWAYS,EGY,32.55,29.966667,as suways,As Suways,Egypt,29.966667,32.55,both,14.183332999999998,-0.6666659999999993,14.849998999999997,EGY
ASALOUYEH,IRN,52.577577,27.510067,asalouyeh,,,,,left_only,20.027577,-2.4566000000000017,22.484177000000003,
ASAU,WSM,-172.6316025,-13.5033018,asau,,,,,left_only,-225.2091795,-41.013368799999995,266.22254829999997,
ASH SHARIQAH,ARE,55.366667,25.416667,ash shariqah,Ash Shariqah,United Arab Emirates,25.366666667,55.383333333,both,227.99826950000002,38.9199688,266.91823830000004,ARE
ASH SHIHR,YEM,49.608406,14.751742,ash shihr,,,,,left_only,-5.758260999999997,-10.664925,16.423185999999998,
ASH SHIHR OIL TERMINAL,YEM,49.5,14.733333,ash shihr oil terminal,Ash Shihr Oil Terminal,Yemen,14.7,49.483333333,both,-0.10840600000000222,-0.01840900000000012,0.12681500000000234,YEM
ASHDOD,ISR,34.65,31.816667,ashdod,Ashdod,Israel,31.816667,34.65,both,-14.850000000000001,17.083334,31.933334000000002,ISR
ASHKELON,ISR,34.55747339,31.68119082,ashkelon,,,,,left_only,-0.09252661000000018,-0.13547617999999773,0.2280027899999979,
ASHLAND,USA,-90.866667,46.6,ashland,Ashland,United States,46.6,-90.866667,both,-125.42414039,14.91880918,140.34294957,USA
ASHQELON,ISR,34.5,31.666667,ashqelon,Ashqelon,Israel,31.666667,34.5,both,125.366667,-14.933333000000001,140.3,ISR
ASHTABULA,USA,-80.8,41.9,ashtabula,Ashtabula,United States,41.9,-80.79999999999998,both,-115.3,10.233332999999998,125.533333,USA
ASHTART OIL TERMINAL,TUN,11.383333,34.283333,ashtart oil terminal,Ashtart Oil Terminal,Tunisia,34.283333,11.383333,both,92.183333,-7.616667,99.80000000000001,TUN
ASILAH,MAR,-6.034242,35.471244,asilah,,,,,left_only,-17.417575,1.1879109999999997,18.605486,
ASKER/SLEMMESTAD,NOR,10.49945921,59.78375059,asker/slemmestad,,,,,left_only,16.53370121,24.312506589999998,40.8462078,
ASKO,DNK,11.48327637,54.88470459,asko,,,,,left_only,0.983817160000001,-4.8990459999999985,5.882863159999999,
ASKVOLL,NOR,5.066101074,61.34729004,askvoll,,,,,left_only,-6.417175296000001,6.462585449999999,12.879760745999999,
ASNAESVAERKETS HAVN,DNK,11.08255216,55.66147411,asnaesvaerkets havn,,,,,left_only,6.016451086000001,-5.685815929999997,11.702267015999997,
ASPRA SPITIA,GRC,22.63333333,38.36666667,aspra spitia,,,,,left_only,11.550781169999999,-17.29480744,28.84558861,
ASPROPIRGOS,GRC,23.6,38.033333,aspropirgos,,,,,left_only,0.9666666700000022,-0.3333336700000018,1.300000340000004,
ASSAB,ERI,42.75,13.0,assab,Assab,Eritrea,13.0,42.75,both,19.16503885,-25.04081781,44.205856659999995,ERI
ASSENS,DNK,9.883333,55.266667,assens,Assens,Denmark,55.266667,9.883333,both,-32.866667,42.266667,75.13333399999999,DNK
ASSINIE,CIV,-3.2762,5.121534,assinie,,,,,left_only,-13.160770081999999,-50.14763267,63.308402752,
ASTAKOS,GRC,21.1,38.483333,astakos,Astakos,Greece,38.483333,21.1,both,24.3762,33.361799000000005,57.737999,GRC
ASTORIA,USA,-123.8449,46.18873387,astoria,Astoria,United States,46.2,-123.833333,both,-144.9449,7.655400540000002,152.60030053999998,USA
ASTYPALEA (ASTIPALAIA),GRC,26.3528385,36.5444605,astypalea (astipalaia),,,,,left_only,150.19773849999999,-9.64427337,159.84201187,
ASUNCION,PRY,-57.6465,-25.278466,asuncion,,,,,left_only,-83.99933850000001,-61.8229265,145.82226500000002,
,EGY,33.616667,28.233333,at tur,At Tur,Egypt,28.233333,33.616667,right_only,91.26316700000001,53.511798999999996,144.774966,EGY
ATAMI HARBOR,JPN,139.0746172,35.09361111,atami harbor,,,,,left_only,105.4579502,6.860278109999999,112.31822831,
ATICO,PER,-73.616196,-16.2296,atico,,,,,left_only,-212.6908132,-51.32321111,264.01402431,
ATIMONAN,PHL,121.9170134,14.00593452,atimonan,,,,,left_only,195.5332094,30.23553452,225.76874392000002,
ATLANTIC CITY,USA,-74.416667,39.366667,atlantic city,Atlantic City,United States,39.366667,-74.416667,both,-196.3336804,25.36073248,221.69441288,USA
ATRECO,USA,-93.8916,29.97883387,atreco,,,,,left_only,-19.474932999999993,-9.38783313,28.862766129999994,
ATSUMI,JPN,137.066667,34.666667,atsumi,Atsumi,Japan,34.666667,137.066667,both,230.95826699999998,4.687833129999998,235.64610012999998,JPN
ATTU,GRL,-53.733333,67.95,attu,Attu,Greenland,67.95,-53.733333,both,-190.8,33.283333000000006,224.083333,GRL
ATUONA,PYF,-139.033333,-9.816667,atuona,Atuona,French Polynesia,-9.816667,-139.033333,both,-85.3,-77.766667,163.066667,PYF
AU SABLE,USA,-83.316667,44.4,au sable,Au Sable,United States,44.4,-83.31666699999998,both,55.716666000000004,54.216667,109.933333,USA
AUCKLAND,NZL,174.7897,-36.865266,auckland,Auckland,New Zealand,-36.85,174.766667,both,258.106367,-81.265266,339.371633,NZL
AUGHINISH ISLAND,IRL,-9.061658268,52.63701905,aughinish island,,,,,left_only,-183.851358268,89.50228505,273.353643318,
AUGUSTA,ITA,15.19324967,37.22640617,augusta,Augusta,Italy,37.216667,15.233333,both,24.254907938000002,-15.410612880000002,39.665520818000005,ITA
AUGUSTENBORG,DNK,9.866667,54.95,augustenborg,Augustenborg,Denmark,54.95,9.866667,both,-5.3265826700000005,17.723593830000006,23.050176500000006,DNK
AUKRA,NOR,6.9137455,62.7902995,aukra,,,,,left_only,-2.9557480220000008,7.847243940000006,10.802991962000007,
AULTBEA,GBR,-5.583333,57.833333,aultbea,Aultbea,United Kingdom,57.833333,-5.583333,both,-12.4970785,-4.9569665,17.454045,GBR
AURE,NOR,8.5321275,63.268984,aure,,,,,left_only,14.1154605,5.435651,19.551111499999998,
AVALON,USA,-118.316667,33.35,avalon,Avalon,United States,33.35,-118.316667,both,-126.8487945,-29.918984000000002,156.7677785,USA
AVATIU,COK,-159.783333,-21.2,avatiu,Avatiu,Cook Islands,-21.2,-159.783333,both,-41.4617193,-54.54611111,96.00783041,COK
AVEDOREVAERKETS HAVN,DNK,12.48358416,55.60300456,avedorevaerkets havn,,,,,left_only,172.26691716,76.80300456,249.06992172,
AVEIRO,PRT,-8.709284617,40.64093007,aveiro,Aveiro,Portugal,40.65,-8.65,both,-21.192868777,-14.96207449,36.154943267,PRT
AVERNAKO/LYO,DNK,10.25653076,55.03649902,avernako/lyo,,,,,left_only,18.965815377,14.395568949999998,33.361384326999996,
AVILES,ESP,-5.921931376,43.57358518,aviles,Aviles,Spain,43.6,-5.933333,both,-16.178462136,-11.462913839999999,27.641375976,ESP
AVONDALE,USA,-90.1994,29.92133387,avondale,,,,,left_only,-84.277468624,-13.65225131,97.92971993399999,
AVONMOUTH,GBR,-2.705433131,51.50551056,avonmouth,Avonmouth,United Kingdom,51.5,-2.716667,both,87.49396686899999,21.584176689999996,109.07814355899998,GBR
AXIM,GHA,-2.2465,4.866134,axim,,,,,left_only,0.45893313099999977,-46.639376559999995,47.098309691,
AYAMONTE,ESP,-7.4069,37.214434,ayamonte,,,,,left_only,-5.1604,32.348299999999995,37.5087,
AYANCIK,TUR,34.5779,41.94953387,ayancik,,,,,left_only,41.9848,4.735099870000006,46.719899870000006,
AYIOS NIKOLAOS,GRC,25.716667,35.2,ayios nikolaos,Ayios Nikolaos,Greece,35.2,25.716667,both,-8.861232999999999,-6.7495338700000005,15.610766869999999,GRC
AYR,GBR,-4.64215845,55.4687125,ayr,Ayr,United Kingdom,55.466667,-4.633333,both,-30.35882545,20.2687125,50.627537950000004,GBR
AYUKAWA HARBOR,JPN,141.5040636,38.295,ayukawa harbor,,,,,left_only,146.14622205,-17.1737125,163.31993455,
AYVALIK,TUR,26.7,39.316667,ayvalik,Ayvalik,Turkey,39.316667,26.7,both,-114.80406359999999,1.0216670000000008,115.82573059999999,TUR
AZ ZAWIYA,LBY,12.716667,32.8,az zawiya,Az Zawiya,Libya,32.8,12.716667,both,-13.983333,-6.516667000000005,20.500000000000007,LBY
AZHIKAL (AZHIKKAL),IND,75.3,11.916667,azhikal (azhikkal),Azhikal (Azhikkal),India,11.945555556,75.30944444399998,both,62.583332999999996,-20.883332999999997,83.46666599999999,IND
AZOV,RUS,39.433333,47.1,azov,Azov,Russia,47.1,39.433333,both,-35.866667,35.183333000000005,71.05000000000001,RUS
BACHAQUERO / MARACAIBO L,VEN,-71.1393,9.925933868,bachaquero / maracaibo l,,,,,left_only,-110.572633,-37.174066132,147.746699132,
BACOLOD,PHL,122.9443,10.67183387,bacolod,,,,,left_only,194.0836,0.7459000020000008,194.829500002,
BACON,PHL,124.045411,13.040989,bacon,,,,,left_only,1.101111000000003,2.3691551299999993,3.4702661300000024,
BADDECK,CAN,-60.7475,46.113934,baddeck,,,,,left_only,-184.792911,33.072945000000004,217.865856,
BAERUM/SANDVIKA/LYSAKER,NOR,10.65,59.91666667,baerum/sandvika/lysaker,,,,,left_only,71.4,13.816666669999996,85.21666667,
BAGAN LUAR,MYS,100.3421,5.410933868,bagan luar,,,,,left_only,89.6921,-54.505732802,144.197832802,
BAGATA,COD,17.9519,-3.732166,bagata,,,,,left_only,-82.39020000000001,-9.143099868,91.533299868,
BAGENKOP HAVN,DNK,10.67431641,54.75189209,bagenkop havn,,,,,left_only,-7.277583589999999,58.48405809,65.76164168,
BAGNOLI,ITA,14.16708124,40.81083037,bagnoli,Bagnoli,Italy,40.81,14.158,both,3.4927648300000005,-13.94106172,17.43382655,ITA
BAGO,DNK,9.800109863,55.32550049,bago,,,,,left_only,-4.3669713770000005,14.514670120000005,18.881641497000004,
BAGOTVILLE,CAN,-70.8855,48.344434,bagotville,,,,,left_only,-80.685609863,-6.9810664900000035,87.666676353,
BAHAI DE LA HABANA,CUB,-82.366667,23.133333,bahai de la habana,Bahai De La Habana,Cuba,23.133333,-82.366667,both,-11.481167000000013,-25.211101,36.69226800000001,CUB
BAHIA AGUA FRESCA,CHL,-70.966667,-53.383333,bahia agua fresca,Bahia Agua Fresca,Chile,-53.383333,-70.966667,both,11.400000000000006,-76.516666,87.916666,CHL
BAHIA BLANCA,ARG,-62.3498,-38.75996613,bahia blanca,Bahia Blanca,Argentina,-38.783333,-62.266667,both,8.616867,14.623366869999998,23.240233869999997,ARG
BAHIA DE ANCON,PER,-77.183333,-11.75,bahia de ancon,Bahia De Ancon,Peru,-11.75,-77.183333,both,-14.833533000000003,27.009966130000002,41.843499130000005,PER
BAHIA DE CARAQUEZ,ECU,-80.424042,-0.611271,bahia de caraquez,,,,,left_only,-3.2407089999999954,11.138729,14.379437999999995,
BAHIA DE COQUIMBO,CHL,-71.333333,-29.95,bahia de coquimbo,,,,,left_only,9.090709000000004,-29.338729,38.429438000000005,
BAHIA DE FAJARDO,PRI,-65.633333,18.333333,bahia de fajardo,Bahia De Fajardo,Puerto Rico,18.333333,-65.633333,both,5.700000000000003,48.283333,53.983333,PRI
BAHIA DE HUARMEY,PER,-78.166667,-10.1,bahia de huarmey,,,,,left_only,-12.53333400000001,-28.433332999999998,40.96666700000001,
BAHIA DE JOBOS,PRI,-66.183333,17.95,bahia de jobos,Bahia De Jobos,Puerto Rico,17.95,-66.183333,both,11.983334,28.049999999999997,40.033333999999996,PRI
BAHIA DE LAS MINAS,PAN,-79.816667,9.4,bahia de las minas,Bahia De Las Minas,Panama,9.4,-79.81666699999998,both,-13.63333399999999,-8.549999999999999,22.183333999999988,PAN
BAHIA DE MANTA,ECU,-80.716667,-0.95,bahia de manta,,,,,left_only,-0.9000000000000057,-10.35,11.250000000000005,
BAHIA DE MATARANI,PER,-72.116667,-17.0,bahia de matarani,Bahia De Matarani,Peru,-17.0,-72.116667,both,8.599999999999994,-16.05,24.649999999999995,PER
BAHIA DE PERTIGALETE,VEN,-64.566667,10.233333,bahia de pertigalete,Bahia De Pertigalete,Venezuela,10.233333,-64.566667,both,7.550000000000011,27.233333000000002,34.78333300000001,
BAHIA DE SAGUA DE TANAMO,CUB,-75.333333,20.683333,bahia de sagua de tanamo,Bahia De Sagua De Tanamo,Cuba,20.683333,-75.33333299999998,both,-10.766666,10.450000000000001,21.216666000000004,CUB
BAHIA DE SEPETIBA,BRA,-43.824,-22.928866,bahia de sepetiba,,,,,left_only,31.509332999999998,-43.612199000000004,75.121532,
BAHIA DE VALDIVIA,CHL,-73.25,-39.8,bahia de valdivia,Bahia De Valdivia,Chile,-39.8,-73.25,both,-29.426000000000002,-16.871133999999998,46.297134,CHL
BAHIA DE VALPARAISO,CHL,-71.616667,-33.033333,bahia de valparaiso,Bahia De Valparaiso,Chile,-33.033333,-71.616667,both,1.6333329999999933,6.766666999999998,8.399999999999991,CHL
BAHIA GUAMACHE,VEN,-64.083333,10.883333,bahia guamache,,,,,left_only,7.533334000000011,43.916666,51.45000000000001,
BAHIA HARRIS,CHL,-70.45,-53.85,bahia harris,Bahia Harris,Chile,-53.85,-70.45,both,-6.366667000000007,-64.733333,71.10000000000001,CHL
BAHIA HERRADURA GUAYACAN,CHL,-71.366667,-29.966667,bahia herradura guayacan,Bahia Herradura Guayacan,Chile,-29.966667,-71.366667,both,-0.9166670000000039,23.883333,24.800000000000004,CHL
BAHIA HONDA,CUB,-83.168659,22.970479,bahia honda,Bahia Honda,Cuba,22.966666667,-83.166666667,both,-11.801991999999998,52.937146,64.739138,CUB
BAHIA LAS MINAS,PAN,-79.81420898,9.392700195,bahia las minas,,,,,left_only,3.3544500200000016,-13.577778805000001,16.932228825000003,
BAHIA QUINTERO,CHL,-71.533333,-32.766667,bahia quintero,,,,,left_only,8.280875980000005,-42.159367195,50.440243175000006,
BAHIA SAN JULIAN,ARG,-67.716667,-49.316667,bahia san julian,,,,,left_only,3.816666330000004,-16.550000330000003,20.366666660000007,
BAHIA SAN NICOLAS,PER,-75.233333,-15.25,bahia san nicolas,Bahia San Nicolas,Peru,-15.25,-75.233333,both,-7.516666000000001,34.066667,41.583333,PER
BAHIA SAN VICENTE,CHL,-73.166667,-36.733333,bahia san vicente,Bahia San Vicente,Chile,-36.733333,-73.166667,both,2.066665999999998,-21.483333000000002,23.549999,CHL
,ITA,14.074,40.817,baia,Baia,Italy,40.817,14.074,right_only,87.240667,77.550333,164.791,ITA
BAIE COMEAU,CAN,-68.1443,49.209934,baie comeau,Baie Comeau,Canada,49.233333,-68.133333,both,-82.21679706,8.392989559999997,90.60978662,CAN
BAIE DE KOUAOUA,NCL,165.816667,-21.383333,baie de kouaoua,Baie De Kouaoua,New Caledonia,-21.383333,165.816667,both,233.96096699999998,-70.593267,304.55423399999995,NCL
,CAN,-69.389171579,48.35082,baie des escoumins,Baie des Escoumins,Canada,48.35082,-69.389171579,right_only,-235.205838579,69.73415299999999,304.939991579,CAN
BAIE DU MARIGOT,MAF,-63.083333,18.066667,baie du marigot,Baie Du Marigot,France,18.066667,-63.083333,both,6.305838579000003,-30.284153,36.589991579,FRA
BAIE TAIOHAE,PYF,-140.083333,-8.933333,baie taiohae,Baie Taiohae,French Polynesia,-8.933333,-140.083333,both,-77.0,-27.0,104.0,PYF
BAIE UGUE,NCL,165.55,-21.15,baie ugue,Baie Ugue,New Caledonia,-21.15,165.55,both,305.633333,-12.216667,317.84999999999997,NCL
BAIE VERTE,CAN,-56.1863,49.942834,baie verte,Baie Verte,Canada,49.916666667,-56.2,both,-221.73630000000003,71.092834,292.829134,CAN
BAIS,PHL,123.116667,9.6,bais,Bais,Philippines,9.6,123.116667,both,179.30296700000002,-40.342833999999996,219.645801,PHL
BAJO GRANDE,VEN,-71.633333,10.516667,bajo grande,Bajo Grande,Venezuela,10.516667,-71.633333,both,-194.75,0.9166670000000003,195.666667,
BAKAPIT,MYS,118.583333,4.95,bakapit,Bakapit,Malaysia,4.95,118.583333,both,190.214933,-5.53053387,195.74546687,MYS
BAKAR,HRV,14.53333333,45.3,bakar,Bakar,Croatia,45.3,14.533333,both,-104.04999966999999,40.349999999999994,144.39999967,HRV
BAKIRKOY,TUR,28.8229,40.96393387,bakirkoy,,,,,left_only,14.289566670000001,-4.336066129999999,18.625632799999998,
BAKKAFJORDUR,ISL,-14.81140137,66.03027344,bakkafjordur,,,,,left_only,-43.63430137,25.066339570000004,68.70064094,
BAKU,AZE,49.87638,40.34778,baku,,,,,left_only,64.68778137,-25.682493440000002,90.37027481,
BALAKLAVA,UKR,33.6,44.5,balaklava,Balaklava,Ukraine,44.5,33.6,both,-16.276379999999996,4.15222,20.428599999999996,UKR
BALANACAN,PHL,121.8657,13.5333,balanacan,,,,,left_only,88.26570000000001,-30.9667,119.23240000000001,
BALANGALA,COD,19.7491,0.391334,balangala,,,,,left_only,-102.1166,-13.141966,115.258566,
BALAO,ECU,-79.648079,0.989153,balao,,,,,left_only,-99.397179,0.5978189999999999,99.994998,
BALBOA,PAN,-79.566667,8.95,balboa,Balboa,Panama,8.95,-79.56666699999998,both,0.10671345000000088,7.926944443999999,8.033657894000001,PAN
BALCHIK,BGR,28.16927372,43.4029623,balchik,,,,,left_only,107.73594072,34.452962299999996,142.18890302,
,IND,86.95,21.483333333,baleshwar,Baleshwar,India,21.483333333,86.95,right_only,58.78072628,-21.919628966999998,80.700355247,IND
BALESTRAND,NOR,6.528903,61.2031075,balestrand,,,,,left_only,-80.421097,39.719774167,120.140871167,
BALHAF,YEM,48.177109,13.979537,balhaf,Balhaf,Yemen,13.966667,48.183333,both,41.648206,-47.2235705,88.87177650000001,YEM
BALIKPAPAN,IDN,116.816667,-1.25,balikpapan,Balikpapan,Indonesia,-1.25,116.816667,both,68.639558,-15.229537,83.86909499999999,IDN
BALLANGEN,NOR,16.8282145,68.3409095,ballangen,,,,,left_only,-99.9884525,69.5909095,169.579362,
BALLAST HEAD,AUS,137.7953,-35.75186613,ballast head,,,,,left_only,120.9670855,-104.09277563,225.05986113,
BALLEBRO,DNK,9.669677734,54.99932861,ballebro,,,,,left_only,-128.125622266,90.75119474,218.876817006,
BALLEN HARBOUR,DNK,10.63704358,55.81611111,ballen harbour,,,,,left_only,0.9673658459999999,0.8167825000000022,1.784148346000002,
BALLINA,AUS,153.566667,-28.866667,ballina,Ballina,Australia,-28.866667,153.566667,both,142.92962341999998,-84.68277811,227.61240153,AUS
BALLSTAD,NOR,13.7,68.066667,ballstad,Ballstad,Norway,68.066667,13.7,both,-139.866667,96.933334,236.800001,NOR
BALLSTAVIKEN,SWE,18.11627197,59.34790039,ballstaviken,,,,,left_only,4.41627197,-8.718766609999996,13.135038579999996,
BALOGO,PHL,121.0430206,13.75534986,balogo,,,,,left_only,102.92674863,-45.59255053,148.51929916,
BALSTA,SWE,17.53869629,59.55352783,balsta,,,,,left_only,-103.50432431,45.79817797,149.30250228,
BALTIC WHARF,GBR,0.783333333,51.63333333,baltic wharf,,,,,left_only,-16.755362957,-7.920194500000001,24.675557457,
BALTIMORE,USA,-76.583333,39.266667,baltimore,Baltimore,United States,39.266667,-76.58333299999998,both,-77.366666333,-12.366666330000001,89.733332663,USA
BALTIYSK,RUS,19.90692139,54.63287354,baltiysk,Baltiysk,Russia,54.633333,19.9,both,96.49025438999999,15.36620654,111.85646093,RUS
BALTRUM I.,DEU,7.367242324,53.72433538,baltrum i.,,,,,left_only,-12.539679066000001,-0.9085381599999991,13.448217226,
BALYKCHY,KGZ,76.15173339,42.43967417,balykchy,,,,,left_only,68.784491066,-11.284661209999996,80.069152276,
BAMBA,MLI,-1.403369978,17.03153869,bamba,,,,,left_only,-77.555103368,-25.408135480000002,102.963238848,
BAMBERG,DEU,10.86808629,49.90867791,bamberg,,,,,left_only,12.271456268000001,32.877139220000004,45.148595488000005,
BAMBERTON,CAN,-123.5191,48.582234,bamberton,Bamberton,Canada,48.55,-123.516667,both,-134.38718629,-1.3264439100000018,135.71363019999998,CAN
BANANA,COD,12.401379,-6.002204,banana,Banana,Congo (Kinshasa),-5.983333,12.383333,both,135.920479,-54.584438,190.504917,
BANATICA,PRT,-9.190312257,38.6772391,banatica,,,,,left_only,-21.591691257,44.6794431,66.271134357,
BANDAR ABBAS,IRN,56.2,27.15,bandar abbas,Bandar Abbas,Iran,27.15,56.2,both,65.390312257,-11.527239100000003,76.91755135700001,IRN
BANDAR KHOMEINI,IRN,49.0875,30.438734,bandar khomeini,,,,,left_only,-7.112500000000004,3.2887340000000016,10.401234000000006,
BANDAR MAHSHAHR,IRN,49.2101,30.500534,bandar mahshahr,,,,,left_only,0.12676699999999386,0.06720099999999718,0.19396799999999104,
BANDAR SERI BEGAWAN,BRN,114.9455,4.886134,bandar seri begawan,Bandar Seri Begawan,Brunei,4.883333,114.883333,both,65.7354,-25.614399999999996,91.34979999999999,
BANDAR TAHERI,IRN,52.354163,27.656766,bandar taheri,,,,,left_only,-62.591336999999996,22.770632,85.36196899999999,
BANDAR-E MAHSHAHR,IRN,49.183333,30.466667,bandar-e mahshahr,Bandar-E Mahshahr,Iran,30.466667,49.183333,both,-3.166667000000004,2.8166670000000025,5.983334000000006,IRN
BANDAR-E PARS TERMINAL,IRN,52.533333,27.533333,bandar-e pars terminal,Bandar-E Pars Terminal,Iran,27.533333,52.533333,both,3.3500000000000014,-2.933334000000002,6.2833340000000035,IRN
BANDAR-E SHAHID REAJIE,IRN,56.066667,27.1,bandar-e shahid reajie,Bandar-E Shahid Reajie,Iran,27.1,56.066667,both,3.5333340000000035,-0.4333329999999975,3.966667000000001,IRN
BANDAR-E-EMAM KHOMEYNI,IRN,49.11871338,30.44207764,bandar-e-emam khomeyni,,,,,left_only,-6.94795362,3.3420776399999994,10.29003126,
BANDHOLM,DNK,11.5,54.833333,bandholm,Bandholm,Denmark,54.833333,11.5,both,-37.61871338,24.391255360000002,62.009968740000005,DNK
BANDIRMA,TUR,27.966667,40.35,bandirma,Bandirma,Turkey,40.35,27.966667,both,16.476737800000002,-14.486486819999996,30.96322462,TUR
BANDON,USA,-124.416667,43.116667,bandon,Bandon,United States,43.116667,-124.416667,both,-152.394567,2.751333129999999,155.14590013,USA
BANDUNDU,COD,17.364702,-3.310424,bandundu,,,,,left_only,141.781369,-46.427091,188.20846,
BANES,CUB,-75.704843,20.919224,banes,Banes,Cuba,20.916666667,-75.716666667,both,-93.069545,24.229648,117.299193,CUB
BANG SAPHAN,THA,99.578329,11.201013,bang saphan,Bang Saphan,Thailand,11.183333,99.6,both,175.28317199999998,-9.718211,185.00138299999998,THA
BANGGAI,IDN,123.4933,-1.586666132,banggai,,,,,left_only,23.91497100000001,-12.787679132,36.70265013200001,
BANGHAZI,LBY,20.05,32.116667,banghazi,Banghazi,Libya,32.116667,20.05,both,-103.44330000000001,33.703333132,137.146633132,LBY
BANGKOK,THA,100.5,13.75,bangkok,Bangkok,Thailand,13.75,100.5,both,80.45,-18.366667,98.816667,THA
BANGKOK MODERN TERMINAL,THA,100.5691402,13.60694444,bangkok modern terminal,,,,,left_only,0.06914020000000676,-0.14305556000000053,0.21219576000000728,
BANGOR,GBR,-5.668625197,54.66248421,bangor,Bangor,United Kingdom,54.65,-5.666667,both,-106.237765397,41.05553977,147.293305167,GBR
BANGOR HARBOR,USA,-68.76984688,44.79194444,bangor harbor,,,,,left_only,-63.101221683000006,-9.87053977,72.971761453,
BANGU,COD,19.2115,-0.163666,bangu,,,,,left_only,87.98134688,-44.95561044,132.93695732,
BANGUI,COD,18.57861042,4.357708258,bangui,,,,,left_only,-0.6328895800000005,4.521374258,5.154263838,
BANIYAS,SYR,35.9571,35.188134,baniyas,Baniyas,Syria,35.188333333,35.943333333,both,17.378489579999997,30.830425742,48.208915321999996,
BANJARMASIN,IDN,114.583333,-3.333333,banjarmasin,Banjarmasin,Indonesia,-3.333333,114.583333,both,78.626233,-38.521467,117.1477,IDN
BANJUL,GMB,-16.5798,13.454734,banjul,Banjul,The Gambia,13.45,-16.566667,both,-131.163133,16.788067,147.9512,
BANTAYAN,PHL,123.7177598,11.16475025,bantayan,,,,,left_only,140.2975598,-2.2899837499999993,142.58754355,
BANTEN,IDN,105.9581591,-6.013746218,banten,Banten,Indonesia,-6.016667,105.966667,both,-17.759600699999993,-17.178496468,34.93809716799999,IDN
BANTRY,IRL,-9.45,51.683333,bantry,Bantry,Ireland,51.683333,-9.45,both,-115.4081591,57.697079218,173.105238318,IRL
BANYUWANGI,IDN,114.3812591,-8.212989541,banyuwangi,,,,,left_only,123.834204135,-59.913941791,183.748145926,
BANZART,TUN,9.883333,37.283333,banzart,Banzart,Tunisia,37.283333,9.883333,both,-104.4979261,45.496322541,149.994248641,TUN
BAOBAB MARINE TERMINAL,CIV,-4.533333,4.95,baobab marine terminal,Baobab Marine Terminal,Cote D'Ivoire,4.966667,-4.55,both,-14.416666,-32.333332999999996,46.749998999999995,
BAR,MNE,19.083333,42.083333,bar,Bar,Montenegro,42.083333,19.083333,both,23.616666,37.133333,60.749999,MNE
BAR HARBOR,USA,-68.2,44.383333,bar harbor,Bar Harbor,United States,44.383333,-68.2,both,-87.283333,2.299999999999997,89.583333,USA
BARAAWE,SOM,44.05,1.1,baraawe,Baraawe,Somalia,1.1,44.05,both,112.25,-43.283333,155.533333,SOM
BARACOA,CUB,-74.500945,20.351272,baracoa,Baracoa,Cuba,20.35,-74.5,both,-118.550945,19.251272,137.80221699999998,CUB
BARADERES,HTI,-73.64237,18.49714,baraderes,,,,,left_only,0.8585750000000019,-1.854132,2.7127070000000018,
BARAGA,USA,-88.483333,46.783333,baraga,Baraga,United States,46.783333,-88.483333,both,-14.840963000000002,28.286192999999997,43.127156,USA
BARAHONA,DOM,-71.091448,18.206924,barahona,,,,,left_only,17.391885000000002,-28.576408999999998,45.968294,
BARALOF BAY,USA,-160.533333,55.233333,baralof bay,Baralof Bay,United States,55.233333,-160.533333,both,-89.441885,37.026409,126.468294,USA
BARBER'S POINT,USA,-158.116667,21.316667,barber's point,Barber's Point,United States,21.316667,-158.116667,both,2.416665999999992,-33.916666000000006,36.333332,USA
BARBUDA,ATG,-61.8332,17.692734,barbuda,,,,,left_only,96.26679999999999,-3.5739330000000002,99.84073299999999,
BARCADERA,ABW,-69.9995,12.48073387,barcadera,,,,,left_only,-8.1663,-5.212000130000002,13.378300130000001,
BARCELONA,ESP,2.166653096,41.35174782,barcelona,Barcelona,Spain,41.35,2.166667,both,72.166153096,28.87101395,101.03716704600001,ESP
BARENTSBURG,NOR,14.233333,78.066667,barentsburg,Barentsburg,Svalbard,78.05944444399998,14.202222222,both,12.066679904,36.714919179999995,48.78159908399999,
BARI,ITA,16.86077727,41.1351007,bari,Bari,Italy,41.146,16.846,both,2.62744427,-36.93156629999999,39.55901056999999,ITA
BARINGA,COD,20.7787,0.675734,baringa,,,,,left_only,3.917922730000001,-40.459366700000004,44.377289430000005,
BARKAN OIL-LOADING TERMINAL,IRN,50.166667,29.733333,barkan oil-loading terminal,Barkan Oil-loading Terminal,Iran,29.733333,50.166667,both,29.387966999999996,29.057599,58.445566,IRN
BARKING,GBR,0.1,51.51666667,barking,,,,,left_only,-50.066666999999995,21.78333367,71.85000067,
BARLETTA,ITA,16.28779255,41.32813146,barletta,,,,,left_only,16.187792549999998,-10.188535209999998,26.376327759999995,
BARNEGAT,USA,-74.1,39.766667,barnegat,Barnegat,United States,39.766667,-74.09999999999998,both,-90.38779255,-1.5614644600000034,91.94925701,USA
BARQUITO,CHL,-70.6518,-26.353266,barquito,,,,,left_only,3.4482,-66.119933,69.568133,
BARRANQUILLA,COL,-74.759619,10.962879,barranquilla,Barranquilla,Colombia,10.966667,-74.766667,both,-4.107819000000006,37.316145,41.423964000000005,COL
BARREIRO,PRT,-9.080444901,38.65248011,barreiro,,,,,left_only,65.679174099,27.689601109999998,93.36877520899999,
BARROW,USA,-156.783333,71.283333,barrow,Barrow,United States,71.283333,-156.783333,both,-147.702888099,32.63085289,180.333740989,USA
BARROW IN FURNESS,GBR,-3.233333,54.116667,barrow in furness,Barrow In Furness,United Kingdom,54.116667,-3.233333,both,153.55,-17.166666,170.716666,GBR
BARROW ISLAND,AUS,115.4205,-20.86106613,barrow island,,,,,left_only,118.653833,-74.97773313,193.63156613,
BARROW-IN-FURNESS,GBR,-3.217697258,54.10345413,barrow-in-furness,,,,,left_only,-118.638197258,74.96452026,193.60271751800002,
BARROW-ON-HUMBER,GBR,-0.391612811,53.69611206,barrow-on-humber,,,,,left_only,2.826084447,-0.40734207000000566,3.2334265170000056,
BARRY,GBR,-3.25970459,51.39489746,barry,Barry,United Kingdom,51.4,-3.266667,both,-2.8680917790000002,-2.3012145999999944,5.169306378999995,GBR
BARTICA,GUY,-58.6128,6.399134,bartica,,,,,left_only,-55.356458225,-45.00139989,100.357858115,
BARTIN,TUR,32.23310449,41.69102536,bartin,,,,,left_only,90.84590449000001,35.291891359999994,126.13779585,
BARTON,GBR,-2.3577,53.477334,barton,,,,,left_only,-34.590804490000004,11.786308640000001,46.377113130000005,
BARTON ON HUMBER,GBR,-0.433333333,53.68333333,barton on humber,,,,,left_only,1.924366667,0.20599933000000448,2.1303659970000046,
BASANKUSU,COD,19.8147,1.230934,basankusu,,,,,left_only,20.248033333,-52.452399330000006,72.700432663,
BASARABI,ROU,28.39800652,44.17526836,basarabi,Basarabi,Romania,44.166667,28.433333,both,8.58330652,42.94433436,51.52764088,ROU
BASCO,PHL,121.966667,20.45,basco,Basco,Philippines,20.45,121.966667,both,93.56866048,-23.725268359999998,117.29392884,PHL
BASEL,CHE,7.596314246,47.58659638,basel,,,,,left_only,-114.370352754,27.136596380000004,141.506949134,
BASHISHOMBE,COD,21.0379,-4.638166,bashishombe,,,,,left_only,13.441585754,-52.22476238,65.666348134,
BASILIAN CITY (ISABELA),PHL,121.966667,6.716667,basilian city (isabela),Basilian City (Isabela),Philippines,6.716667,121.966667,both,100.928767,11.354833,112.28359999999999,PHL
BASKA,HRV,14.76705632,44.96707829,baska,,,,,left_only,-107.19961068,38.25041129,145.45002197000002,
BASOKO,COD,23.5779,1.208334,basoko,,,,,left_only,8.81084368,-43.75874429,52.56958797,
BASONGO,COD,20.3651,-4.320466,basongo,,,,,left_only,-3.212799999999998,-5.5287999999999995,8.741599999999998,
BASRA,IRQ,47.83947754,30.52069092,basra,,,,,left_only,27.474377539999995,34.84115692,62.315534459999995,
BASS HARBOR,USA,-68.35,44.233333,bass harbor,Bass Harbor,United States,44.233333,-68.35,both,-116.19969999999999,13.721899,129.921599,USA
BASSE TERRE,GLP,-61.71666667,16.0,basse terre,Basse Terre,Guadeloupe,16.0,-61.733333,both,6.633333329999992,-28.233333000000002,34.866666329999994,GLP
BASSE-INDRE,FRA,-1.671077967,47.19858933,basse-indre,,,,,left_only,60.045588703,31.198589329999997,91.244178033,
BASSE-TERRE (GUADELOUPE),GLP,-61.71666667,16.0,basse-terre (guadeloupe),,,,,left_only,-60.045588703,-31.198589329999997,91.244178033,
BASSEIN,MMR,94.730816,16.781122,bassein,Bassein,Burma,16.783333333,94.733333333,both,156.44748267,0.7811219999999999,157.22860467,BUR
BASSENS,FRA,-0.523801061,44.89759528,bassens,,,,,left_only,-95.254617061,28.116473279999997,123.371090341,
BASSETERRE,KNA,-62.7157,17.292734,basseterre,Basseterre,Saint Kitts and Nevis,17.3,-62.716667,both,-62.191898939,-27.604861279999998,89.79676021899999,KNA
BASSILIKI LEYKADOS (BASILIKI LEIKADAS),GRC,20.65,38.63333333,bassiliki leykados (basiliki leikadas),,,,,left_only,83.3657,21.34059933,104.70629933000001,
BASTAD,SWE,12.8727,56.427334,bastad,,,,,left_only,-7.7772999999999985,17.794000670000003,25.57130067,
BASTIA,FRA,9.446591644,42.6832012,bastia,Bastia,France,42.7,9.45,both,-3.4261083560000003,-13.744132800000003,17.170241156000003,FRA
BASUO,CHN,108.6183,19.09663387,basuo,Basuo,China,19.1,108.616667,both,99.17170835600001,-23.586567329999998,122.758275686,CHN
BATA,GNQ,9.75,1.866667,bata,Bata,Equatorial Guinea,1.866667,9.766667,both,-98.8683,-17.229966870000002,116.09826687,GNQ
BATAAN,PHL,120.6067,14.50013387,bataan,,,,,left_only,110.8567,12.633466870000001,123.49016687000001,
BATANGAS CITY,PHL,121.05,13.75,batangas city,Batangas City,Philippines,13.75,121.05,both,0.4432999999999936,-0.7501338700000009,1.1934338699999945,PHL
BATCHAWANA BAY,CAN,-84.6,46.916667,batchawana bay,Batchawana Bay,Canada,46.916667,-84.59999999999998,both,-205.64999999999998,33.166667,238.81666699999997,CAN
BATEAU HARBOR,CAN,-55.766667,53.4,bateau harbor,,,,,left_only,28.833332999999996,6.483333000000002,35.316666,
BATEMANS BAY,AUS,150.166667,-35.7,batemans bay,Batemans Bay,Australia,-35.7,150.166667,both,205.933334,-89.1,295.03333399999997,AUS
BATEMPA,COD,23.7821,-5.055766,batempa,,,,,left_only,-126.38456699999999,30.644234000000004,157.028801,
BATH,USA,-69.816667,43.916667,bath,Bath,United States,43.916667,-69.816667,both,-93.598767,48.972432999999995,142.57119999999998,USA
BATHURST,CAN,-65.6562,47.617634,bathurst,,,,,left_only,4.146980209999995,3.7040228900000045,7.8510031,
BATHURST ISLAND,AUS,130.1755,-11.48026613,bathurst island,,,,,left_only,195.808833333,-59.113599463,254.922432796,
BATON ROUGE,USA,-91.183333,30.45,baton rouge,Baton Rouge,United States,30.45,-91.183333,both,-221.358833,41.93026613,263.28909913,USA
BATROUN,LBN,35.65742875,34.25722892,batroun,,,,,left_only,126.84076175000001,3.8072289200000036,130.64799067,
BATSFJORD,NOR,29.7310791,70.63250732,batsfjord,,,,,left_only,-5.926349650000002,36.3752784,42.301628050000005,
BATSKARSNAS,SWE,23.4169,65.799334,batskarsnas,,,,,left_only,-6.316433,-4.8339989999999915,11.150431999999991,
,LKA,81.68333333299998,7.766666667,batticaloa roads,Batticaloa Roads,Sri Lanka,7.766666667,81.68333333299998,right_only,58.26643333299998,-58.032667333,116.29910066599999,LKA
BATTLE HARBOR,CAN,-55.583333,52.266667,battle harbor,,,,,left_only,-137.266666333,44.500000332999996,181.766666666,
BATTLESBRIDGE,GBR,0.5703965,51.6225535,battlesbridge,,,,,left_only,56.153729500000004,-0.644113499999996,56.797843,
BATU PAHAT,MYS,102.9261,1.836733868,batu pahat,,,,,left_only,102.3557035,-49.785819632,152.141523132,
BATUMI,GEO,41.6509,41.653334,batumi,Batumi,Georgia,41.65,41.65,both,-61.275200000000005,39.816600132,101.091800132,GEO
BAUBAU,IDN,122.616667,-5.466667,baubau,Baubau,Indonesia,-5.466667,122.616667,both,80.965767,-47.120001,128.085768,IDN
,CAN,-52.816666667,47.316666667,bay bulls,Bay Bulls,Canada,47.316666667,-52.816666667,right_only,-175.433333667,52.783333667,228.216667334,CAN
BAY CITY,USA,-124.066667,46.866667,bay city,Bay City,United States,46.866667,-124.066667,both,-71.25889315,-0.4483329999999981,71.70722615,USA
BAY OF PILLARS,USA,-134.233333,56.6,bay of pillars,Bay Of Pillars,United States,56.6,-134.233333,both,-10.166665999999992,9.733333000000002,19.899998999999994,USA
BAY ROBERTS,CAN,-53.2759,47.588034,bay roberts,Bay Roberts,Canada,47.58905,-53.26265,both,80.95743299999998,-9.011966000000001,89.96939899999998,CAN
BAYBAY,PHL,124.8,10.683333,baybay,Baybay,Philippines,10.683333,124.8,both,178.05883391999998,-36.906667000000006,214.96550091999998,PHL
BAYBORO,USA,-76.766667,35.15,bayboro,Bayboro,United States,35.15,-76.766667,both,-201.566667,24.466667,226.033334,USA
BAYFIELD,USA,-90.816667,46.8,bayfield,Bayfield,United States,46.8,-90.816667,both,-14.049999999999997,11.649999999999999,25.699999999999996,USA
BAYONNE,FRA,-1.488996831,43.51023781,bayonne,Bayonne,France,43.5,-1.466667,both,89.327670169,-3.2897621899999976,92.61743235899999,FRA
BAYRUT,LBN,35.5,33.9,bayrut,Bayrut,Lebanon,33.9,35.5,both,36.988996831,-9.610237810000001,46.599234641,LBN
BAYTOWN,USA,-95.016667,29.733333,baytown,Baytown,United States,29.733333,-95.016667,both,-130.51666699999998,-4.166667,134.68333399999997,USA
BAYUQUAN,CHN,122.083333,40.3,bayuquan,Bayuquan,China,40.3,122.083333,both,217.1,10.566666999999999,227.666667,CHN
BAYWAY,USA,-74.2,40.633333,bayway,Bayway,United States,40.633333,-74.2,both,-196.283333,0.3333330000000032,196.616666,USA
BEACHPORT,AUS,140.0071,-37.49386613,beachport,,,,,left_only,214.20710000000003,-78.12719913000001,292.33429913000003,
BEAR ISLAND,USA,-152.683333,58.45,bear island,Bear Island,United States,58.45,-152.683333,both,-292.690433,95.94386613,388.63429913,USA
BEAUFORT,USA,-76.666667,34.716667,beaufort,Beaufort,United States,34.716667,-76.666667,both,76.016666,-23.733333000000002,99.749999,USA
BEAUHARNOIS,CAN,-73.883333,45.316667,beauharnois,Beauharnois,Canada,45.316667,-73.88333299999998,both,2.7833340000000106,10.600000000000001,13.383334000000012,CAN
BEAUMARIS,GBR,-4.097103,53.2640845,beaumaris,,,,,left_only,69.78622999999999,7.9474175,77.73364749999999,
BEAUMONT,USA,-94.083333,30.083333,beaumont,Beaumont,United States,30.083333,-94.083333,both,-89.98622999999999,-23.180751500000003,113.16698149999999,USA
BEAUTY POINT,AUS,146.816667,-41.15,beauty point,Beauty Point,Australia,-41.15,146.816667,both,240.89999999999998,-71.233333,312.133333,AUS
BEAVER HARBOUR,CAN,-66.7352768,45.07138889,beaver harbour,,,,,left_only,-213.5560071,86.22583333,299.78184043,
BEC D'AMBES,FRA,-0.568033616,45.0341608,bec d'ambes,,,,,left_only,66.167243184,-0.03722808999999927,66.204471274,
BECANCOUR,CAN,-72.3794,46.392834,becancour,,,,,left_only,-71.81136638400001,1.3586731999999984,73.17003958400001,
BECKINGHAM,GBR,-0.8281245,53.396483,beckingham,,,,,left_only,71.5512755,7.003649000000003,78.5549245,
BEDDINGEN - ZU SALZGITTER -,DEU,10.42171956,52.18882893,beddingen - zu salzgitter -,,,,,left_only,11.24984406,-1.2076540700000038,12.457498130000003,
BEDI,IND,70.033333,22.516667,bedi,Bedi,India,22.573055556,70.045555556,both,59.61161344,-29.672161929999998,89.28377537,IND
BEGIRO,MDG,45.09483872,-19.78631941,begiro,,,,,left_only,-24.93849428,-42.30298641,67.24148069,
BEIDENFLETH,DEU,9.421508789,53.87670898,beidenfleth,,,,,left_only,-35.673329931,73.66302839,109.33635832099999,
BEIHAI,CHN,109.0811,21.48393387,beihai,Beihai,China,21.483333,109.066667,both,99.659591211,-32.392775109999995,132.052366321,CHN
BEIRA,MOZ,34.8345,-19.81416613,beira,Beira,Mozambique,-19.833333,34.833333,both,-74.2466,-41.298100000000005,115.5447,MOZ
BEIRUT,LBN,35.51783762,33.9015091,beirut,,,,,left_only,0.6833376200000032,53.71567523,54.399012850000005,
BEJAIA,DZA,5.0797,36.751234,bejaia,Bejaia,Algeria,36.75,5.083333,both,-30.438137620000003,2.8497248999999982,33.287862520000004,DZA
BEKKERI,EST,24.6627772,59.4528867,bekkeri,Bekkeri,Estonia,59.45454,24.66745,both,19.5830772,22.701652700000004,42.2847299,EST
BEKUNGU,COD,19.266645,-2.249479,bekungu,,,,,left_only,-5.3961322,-61.7023657,67.0984979,
BELA VISTA,MOZ,32.6779,-26.34536613,bela vista,,,,,left_only,13.411255,-24.095887129999998,37.50714213,
BELANAK FIELD TERMINAL,IDN,106.25,4.15,belanak field terminal,Belanak Field Terminal,Indonesia,4.15,106.25,both,73.5721,30.49536613,104.06746613000001,IDN
BELAWAN,IDN,98.683333,3.783333,belawan,Belawan,Indonesia,3.783333,98.683333,both,-7.566666999999995,-0.3666670000000005,7.933333999999996,IDN
BELEKERI,IND,74.2647,14.72013387,belekeri,Belekeri,India,14.7,74.266667,both,-24.418633,10.936800869999999,35.35543387,IND
BELEM,BRA,-48.5079,-1.443466,belem,Belem,Brazil,-1.45,-48.5,both,-122.77260000000001,-16.16359987,138.93619987,BRA
BELFAST,GBR,-5.900221431,54.62076382,belfast,Belfast,United States,44.416667,-69.0,both,42.607678569,56.06422982,98.67190838900001,USA
BELGOROD-DNESTROVSKIY,UKR,30.373142,46.183247,belgorod-dnestrovskiy,,,,,left_only,36.273363431,-8.437516819999999,44.710880251,
BELHAVEN,USA,-76.616667,35.616667,belhaven,Belhaven,United States,35.616667,-76.616667,both,-106.98333400000001,-10.566665999999998,117.55000000000001,USA
BELIDA MARINE TERMINAL,IDN,105.133333,4.133333,belida marine terminal,Belida Marine Terminal,Indonesia,4.133333,105.133333,both,181.75,-31.483334,213.233334,IDN
BELIZE CITY,BLZ,-88.1762085,17.49829102,belize city,Belize City,Belize,17.5,-88.183333,both,-193.3095415,13.36495802,206.67449951999998,BLZ
BELKOFSKI,USA,-162.033333,55.083333,belkofski,Belkofski,United States,55.083333,-162.033333,both,-73.8571245,37.58504198,111.44216648,USA
BELL BAY,AUS,146.8423,-41.18996613,bell bay,,,,,left_only,308.875633,-96.27329913,405.14893213,
BELLA BELLA,CAN,-128.15,52.16666667,bella bella,Bella Bella,Canada,52.166667,-128.15,both,-274.9923,93.3566328,368.3489328,CAN
BELLA COOLA,CAN,-126.7608,52.368134,bella coola,Bella Coola,Canada,52.366667,-126.8,both,1.3892000000000024,0.20146732999999983,1.5906673300000023,CAN
BELLEDUNE,CAN,-65.8463,47.902734,belledune,,,,,left_only,60.9432171,-4.471710439999995,65.41492754,
BELLEVILLE,CAN,-77.3758,44.152234,belleville,Belleville,Canada,44.15,-77.4,both,-11.542466667,-3.7477659999999986,15.290232666999998,CAN
BELLINGHAM,USA,-122.5078,48.76353387,bellingham,Bellingham,United States,48.75,-122.5,both,-45.132000000000005,4.611299870000003,49.74329987000001,USA
BELLPORT,GBR,-2.966666667,51.56666667,bellport,,,,,left_only,119.541133333,2.803132799999993,122.34426613299999,
BELO TSIRIBIHINA,MDG,44.54360257,-19.69989428,belo tsiribihina,,,,,left_only,47.510269236999996,-71.26656095,118.776830187,
BELOMORSK,RUS,34.7821,64.52393387,belomorsk,,,,,left_only,-9.761502569999998,84.22382814999999,93.98533071999998,
BENA DIBELE,COD,22.8349,-4.108066,bena dibele,,,,,left_only,-11.947199999999999,-68.63199986999999,80.57919986999998,
BENA MAKINA,COD,21.0755,-4.972766,bena makina,,,,,left_only,-1.7593999999999994,-0.8647,2.6240999999999994,
BENCHAMAS TERMINAL,THA,101.25,10.516667,benchamas terminal,Benchamas Terminal,Thailand,10.516667,101.25,both,80.1745,15.489433,95.663933,THA
BENGHAZI,LBY,20.03957361,32.10398736,benghazi,,,,,left_only,-81.21042639,21.58732036,102.79774674999999,
BENGKALIS,IDN,102.1041,1.466333868,bengkalis,Bengkalis,Indonesia,1.466667,102.1,both,82.06452639,-30.637653492,112.702179882,IDN
BENGKULU,IDN,102.25,-3.783333,bengkulu,Bengkulu,Indonesia,-3.783333,102.25,both,0.14589999999999748,-5.249666868,5.395566867999998,IDN
BENGUELA,AGO,13.4005,-12.571766,benguela,,,,,left_only,-88.8495,-8.788433000000001,97.637933,
BENI SAF,DZA,-1.383333,35.3,beni saf,Beni Saf,Algeria,35.3,-1.383333,both,-14.783833,47.871765999999994,62.655598999999995,DZA
BENICIA,USA,-122.15,38.05,benicia,Benicia,United States,38.05,-122.15,both,-120.76666700000001,2.75,123.51666700000001,USA
BENIDORM,ESP,-0.1159,38.530534,benidorm,,,,,left_only,122.03410000000001,0.4805340000000058,122.51463400000002,
BENOA,IDN,117.966667,0.983333,benoa,Benoa,Indonesia,-8.75,115.216667,both,118.082567,-37.547201,155.629768,IDN
BENSERSIEL,DEU,7.574279785,53.67590332,bensersiel,,,,,left_only,-110.392387215,52.69257032,163.084957535,
BENTI,GIN,-13.2,9.166667,benti,Benti,Guinea,9.166667,-13.2,both,-20.774279784999997,-44.50923632,65.28351610499999,GIN
BENTIU,SSD,29.812939,9.285881,bentiu,,,,,left_only,43.012939,0.11921399999999949,43.132153,
BEPPU,JPN,131.503429,33.304421,beppu,Beppu,Japan,33.316667,131.516667,both,101.69049000000001,24.018539999999998,125.70903000000001,JPN
BEPUMBA,COD,19.1681,-0.361066,bepumba,,,,,left_only,-112.33532900000002,-33.665487,146.00081600000001,
BERBERA,SOM,44.99735097,10.43780536,berbera,Berbera,Somalia,10.45,45.016667,both,25.82925097,10.79887136,36.62812233,SOM
BERDYANSK,UKR,36.778235,46.75227,berdyansk,Berdyansk,Ukraine,46.75,36.783333,both,-8.219115969999997,36.314464640000004,44.53358061,UKR
BERENICE,EGY,35.49076595,23.94024938,berenice,,,,,left_only,-1.2874690500000057,-22.812020620000002,24.099489670000008,
BEREVO,MDG,44.96671783,-19.73327434,berevo,,,,,left_only,9.475951880000004,-43.673523720000006,53.14947560000001,
BERG,NOR,12.2,65.366667,berg,Berg,Norway,65.365277778,12.196666667,both,-32.766717830000005,85.09994134000002,117.86665917000002,NOR
BERGAMBACHT,NLD,4.782714844,51.91888428,bergambacht,,,,,left_only,-7.417285155999999,-13.447782720000006,20.865067876000005,
,NOR,5.298611111,60.402777778,bergen,Bergen,Norway,60.402777778,5.298611111,right_only,0.5158962669999996,8.483893498,8.999789765,NOR
BERGEN OP ZOOM,NLD,4.241699219,51.50170898,bergen op zoom,,,,,left_only,-1.0569118919999996,-8.901068798000004,9.957980690000003,
BERGH COVE,CAN,-127.616667,50.533333,bergh cove,Bergh Cove,Canada,50.533333,-127.616667,both,-131.858366219,-0.9683759799999976,132.826742199,CAN
BERGKVARA,SWE,16.08691406,56.37750244,bergkvara,Bergkvara,Sweden,56.383333,16.1,both,143.70358106,5.844169440000002,149.5477505,SWE
BERGS OLJEHAMN,SWE,18.16168213,59.31890869,bergs oljehamn,,,,,left_only,2.07393184,2.9311309100000003,5.0050627500000004,
BERGUM,NLD,5.983479915,53.19820976,bergum,,,,,left_only,-12.178202214999999,-6.120698930000003,18.298901145000002,
BERINGOVSKIY,RUS,179.3445,63.054734,beringovskiy,,,,,left_only,173.361020085,9.856524240000006,183.217544325,
BERKELEY,USA,-122.3,37.866667,berkeley,Berkeley,United States,37.866667,-122.3,both,-301.6445,-25.188067000000004,326.832567,USA
BERLEVAG,NOR,29.1,70.866667,berlevag,Berlevag,Norway,70.861666667,29.111944444,both,151.4,33.00000000000001,184.4,NOR
BERLIN,DEU,13.33394924,52.53758771,berlin,,,,,left_only,-15.76605076,-18.32907929000001,34.09513005000001,
BERMEO,ESP,-2.716656393,43.41930201,bermeo,Bermeo,Spain,43.416667,-2.716667,both,-16.050605633,-9.118285699999994,25.168891332999994,ESP
BERNARD HARBOR,USA,-143.633333,70.133333,bernard harbor,Bernard Harbor,United States,70.133333,-143.633333,both,-140.916676607,26.71403098999999,167.630707597,USA
BERORI,COD,22.3647,0.112534,berori,,,,,left_only,165.998033,-70.020799,236.01883199999997,
BERRE,FRA,5.1745,43.486534,berre,,,,,left_only,-17.190199999999997,43.374,60.5642,
BERVILLE,FRA,0.3619,49.436234,berville,,,,,left_only,-4.8126,5.9497,10.7623,
BERWICK-ON-TWEED,GBR,-2.000517653,55.77997901,berwick-on-tweed,,,,,left_only,-2.362417653,6.343745009999999,8.706162662999999,
BESHAYER OIL TERMINAL,SDN,37.316667,19.4,beshayer oil terminal,Beshayer Oil Terminal,Sudan,19.4,37.316667,both,39.316667,-36.366667,75.683334,SDN
BESOW,COD,20.2451,-1.163966,besow,,,,,left_only,-17.071567,-20.563965999999997,37.635532999999995,
BETHEL,USA,-161.716667,60.816667,bethel,Bethel,United States,60.816667,-161.716667,both,-181.961767,61.980633000000005,243.94240000000002,USA
BEVERLY,USA,-70.883333,42.533333,beverly,Beverly,United States,42.533333,-70.883333,both,90.83333400000001,-18.283334000000004,109.116668,USA
BEVERWIJK,NLD,4.662719727,52.46209717,beverwijk,,,,,left_only,75.54605272699999,9.928764170000001,85.47481689699998,
BEYKOZ,TUR,29.1005,41.127534,beykoz,,,,,left_only,24.437780273,-11.334563170000003,35.772343443000004,
BEYPORE,IND,75.8287,11.18293387,beypore,Beypore,India,11.166667,75.79999999999998,both,46.7282,-29.944600129999998,76.67280013,IND
BHAVNAGAR,IND,72.233333,21.766667,bhavnagar,Bhavnagar,India,21.766667,72.233333,both,-3.595366999999996,10.583733130000002,14.179100129999998,IND
BHEEMUNIPATNAM,IND,83.4661,17.89073387,bheemunipatnam,,,,,left_only,11.232766999999996,-3.8759331300000035,15.108700129999999,
BIAK,IDN,136.3755656,-1.25595776,biak,,,,,left_only,52.90946559999999,-19.14669163,72.05615723,
BIALLA,PNG,151.0091532,-5.30783009,bialla,Bialla,Papua New Guinea,-5.3,150.983333,both,14.633587599999998,-4.05187233,18.68545993,PNG
BIARRITZ,FRA,-1.5669,43.487134,biarritz,,,,,left_only,-152.5760532,48.79496409,201.37101729,
BIDEFORD,GBR,-4.2,51.01666667,bideford,Bideford,United Kingdom,51.033333,-4.2,both,-2.6331,7.529532670000002,10.162632670000002,GBR
,BLZ,-88.4,16.516666667,big creek,Big Creek,Belize,16.516666667,-88.4,right_only,-84.2,-34.500000003,118.700000003,BLZ
BIG PORT WALTER,USA,-134.733333,56.383333,big port walter,Big Port Walter,United States,56.383333,-134.733333,both,-46.33333299999998,39.866666333,86.19999933299998,USA
BIKORO,COD,18.127,-0.731731,bikoro,,,,,left_only,152.860333,-57.115064000000004,209.975397,
BILBAO,ESP,-3.067537865,43.35228306,bilbao,,,,,left_only,-21.194537864999997,44.08401406,65.278551925,
BILDUDALUR,ISL,-23.5987442,65.68443642,bildudalur,Bildudalur,Iceland,65.683333,-23.6,both,-20.531206335,22.33215336,42.863359695,ISL
BILILI,COD,18.4001,-4.366566,bilili,,,,,left_only,41.99884419999999,-70.05100242,112.04984662,
BILLINGHAM,GBR,-1.266666667,54.58333333,billingham,,,,,left_only,-19.666766666999997,58.94989933,78.616665997,
BILOXI,USA,-88.883333,30.383333,biloxi,Biloxi,United States,30.383333,-88.88333299999998,both,-87.616666333,-24.20000033,111.816666663,USA
BIMA,IDN,118.7198279,-8.45011512,bima,,,,,left_only,207.60316089999998,-38.83344812,246.43660902,
BINDJA,COD,19.635889,-3.423649,bindja,,,,,left_only,-99.08393889999999,5.026466119999999,104.11040501999999,
BINGA,COD,20.5111,2.395033868,binga,,,,,left_only,0.8752110000000002,5.818682868,6.693893868,
BINTANGOR,MYS,111.633333,2.166667,bintangor,Bintangor,Malaysia,2.166667,111.633333,both,91.122233,-0.22836686800000017,91.35059986799999,MYS
BINTULU,MYS,113.0295,3.186933868,bintulu,,,,,left_only,1.3961670000000055,1.0202668680000002,2.4164338680000057,
BINTULU PORT,MYS,113.066667,3.266667,bintulu port,Bintulu Port,Malaysia,3.266667,113.066667,both,0.03716699999999662,0.07973313199999987,0.11690013199999649,MYS
BIOGRAD NA MORU,HRV,15.45,43.93333333,biograd na moru,,,,,left_only,-97.61666699999999,40.666666330000005,138.28333333,
BIRD PORT,GBR,-2.966667,51.566667,bird port,Bird Port,United Kingdom,51.566667,-2.966667,both,-18.416667,7.633333669999999,26.05000067,GBR
BIRKENHEAD,GBR,-3.034073359,53.4043447,birkenhead,,,,,left_only,-0.06740635900000003,1.8376777000000004,1.9050840590000004,
,ITA,16.509,41.246,bisceglie,Bisceglie,Italy,41.246,16.509,right_only,19.543073359,-12.1583447,31.701418059,ITA
BISENGE,COD,19.787253,-3.424766,bisenge,,,,,left_only,3.2782529999999994,-44.670766,47.949019,
BISLIG,PHL,126.361156,8.190303781,bislig,,,,,left_only,106.573903,11.615069781,118.188972781,
BISSAU,GNB,-15.5859,11.86113387,bissau,Bissau,Guinea-Bissau,11.866667,-15.633333,both,-141.947056,3.670830088999999,145.617886089,GNB
BITUNG,IDN,125.183333,1.433333,bitung,Bitung,Indonesia,1.433333,125.183333,both,140.769233,-10.42780087,151.19703387,IDN
BIZERTE,TUN,9.8737,37.27113387,bizerte,,,,,left_only,-115.309633,35.83780087,151.14743387000001,
BLACE,HRV,17.48333333,43.01666667,blace,,,,,left_only,7.609633330000001,5.745532799999999,13.35516613,
BLACK RIVER,JAM,-77.8561,18.02273387,black river,,,,,left_only,-95.33943332999999,-24.9939328,120.33336612999999,
BLACKPOINT,FJI,-179.9797363,-16.78396034,blackpoint,,,,,left_only,-102.12363630000002,-34.80669421,136.93033051000003,
BLAINE,CAN,-122.75,49.0,blaine,Blaine,United States,49.0,-122.75,both,57.22973630000001,65.78396034,123.01369664,USA
BLANC SABLON,CAN,-57.133333,51.416667,blanc sablon,Blanc Sablon,Canada,51.416667,-57.133333,both,65.616667,2.416666999999997,68.033334,CAN
BLANG LANCANG,IDN,97.096312,5.222029,blang lancang,,,,,left_only,154.229645,-46.194638,200.424283,
BLANKAHOLM,SWE,16.5237,57.580834,blankaholm,,,,,left_only,-80.57629999999999,52.347501,132.923801,
BLAYE,FRA,-0.662294,45.1278115,blaye,Blaye,France,45.133333,-0.666667,both,-17.185994,-12.453022500000003,29.639016500000004,FRA
BLENHEIM,NZL,174.0841,-41.652266,blenheim,,,,,left_only,174.746394,-86.7800775,261.5264715,
BLEXEN,DEU,8.544989464,53.5205529,blexen,,,,,left_only,-165.539110536,95.1728189,260.711929436,
BLIND RIVER,CAN,-82.9363,46.175434,blind river,Blind River,Canada,46.183333,-82.95,both,-91.481289464,-7.345118899999996,98.826408364,CAN
BLINYU,IDN,105.783333,-1.633333,blinyu,Blinyu,Indonesia,-1.633333,105.783333,both,188.719633,-47.808767,236.52839999999998,IDN
BLONDUOS,ISL,-20.281519,65.6606915,blonduos,,,,,left_only,-126.064852,67.29402449999999,193.3588765,
BLOWING POINT,AIA,-63.0863,18.18043387,blowing point,,,,,left_only,-42.804781000000006,-47.48025763,90.28503863,
BLUBBER BAY HARBOR,CAN,-124.6207303,49.79,blubber bay harbor,,,,,left_only,-61.534430300000004,31.609566129999997,93.14399643,
BLUEFIELDS,NIC,-83.75772,12.01501,bluefields,Bluefields,Nicaragua,12.016667,-83.75,both,40.8630103,-37.77499,78.6380003,NIC
BLUFF,NZL,168.3549,-46.611066,bluff,,,,,left_only,252.11262,-58.626076,310.738696,
BLUMENTHAL,DEU,8.584871552,53.17672879,blumenthal,,,,,left_only,-159.748461448,99.77672878999999,259.525190238,
BLYTH,GBR,-1.503580795,55.12509759,blyth,Blyth,United Kingdom,55.116667,-1.5,both,-10.088452346999999,1.9483688000000043,12.036821147000003,GBR
BO,NOR,14.4754765,68.616176,bo,,,,,left_only,15.979057294999999,13.491078409999993,29.47013570499999,
BOBURU,COG,18.0367,1.437533868,boburu,,,,,left_only,3.5612235000000005,-67.178642132,70.73986563199999,
BOCA CHICA,DOM,-69.628205,18.420997,boca chica,,,,,left_only,-87.66490499999999,16.983463132,104.64836813199999,
BOCA GRANDE,USA,-82.333333,26.7,boca grande,Boca Grande,United States,26.7,-82.33333299999998,both,-12.705128000000002,8.279003,20.984131,USA
BOCAGRANDE,USA,-82.258,26.74753387,bocagrande,,,,,left_only,0.07533300000000054,0.04753387000000231,0.12286687000000285,
BOCAS DEL TORO,PAN,-82.233333,9.333333,bocas del toro,Bocas Del Toro,Panama,9.333333,-82.233333,both,0.024666999999993777,-17.414200870000002,17.438867869999996,PAN
BODEGA BAY,USA,-123.05,38.333333,bodega bay,Bodega Bay,United States,38.333333,-123.05,both,-40.816666999999995,29.000000000000004,69.816667,USA
BODO,NOR,14.383333,67.283333,bodo,Bodo,Norway,67.285555556,14.364166667,both,137.433333,28.949999999999996,166.383333,NOR
,TUR,27.433333,37.033333,bodrum,Bodrum,Turkey,37.033333,27.433333,right_only,13.05,-30.25,43.3,TUR
BOENDE,COD,20.880031,-0.273586,boende,,,,,left_only,-6.553302000000002,-37.306919,43.860221,
BOGENSE,DNK,10.08110736,55.56620615,bogense,,,,,left_only,-10.798923639999998,55.83979215,66.63871578999999,
BOGO,DNK,12.05133057,54.91247559,bogo,,,,,left_only,1.9770667299999989,-0.6550244100000029,2.6320911400000018,
BOHUS,SWE,12.00769043,57.85388184,bohus,,,,,left_only,-0.04364013999999905,2.94140625,2.985046389999999,
BOJDEN,DNK,10.09613037,55.10913086,bojden,,,,,left_only,-1.9115600600000011,-2.744750979999999,4.65631104,
BOKAKATA,COD,19.5581,1.268134,bokakata,,,,,left_only,9.46196963,-53.84099686,63.302966489999996,
BOKILA,COD,21.664164,-4.019064,bokila,,,,,left_only,2.106064,-5.287198,7.393262,
BOKOKO,COD,18.371452,-2.858456,bokoko,,,,,left_only,-3.292711999999998,1.1606080000000003,4.453319999999998,
BOKOLO,COD,20.7671,3.226033868,bokolo,,,,,left_only,2.395647999999998,6.084489868,8.480137867999998,
BOKOTE,COD,20.1325,-0.114766,bokote,,,,,left_only,-0.6345999999999989,-3.340799868,3.975399867999999,
BOKUNGU,COD,22.3187,-0.684666,bokungu,,,,,left_only,2.1861999999999995,-0.5699,2.7560999999999996,
BOKWANKUSU,COD,22.7801,-1.860866,bokwankusu,,,,,left_only,0.46140000000000114,-1.1762,1.637600000000001,
BOL,HRV,16.6501503,43.25957871,bol,,,,,left_only,-6.129949700000001,45.12044471,51.25039441,
BOLAFA,COD,22.1067,1.544934,bolafa,,,,,left_only,5.4565497,-41.71464471,47.17119441,
BOLAMA,GNB,-15.4822,11.578934,bolama,,,,,left_only,-37.5889,10.034,47.6229,
BOLEKE,COD,19.5165,-0.092266,boleke,,,,,left_only,34.9987,-11.6712,46.6699,
BOLLSTABRUK,SWE,17.68988037,62.9954834,bollstabruk,Bollstabruk,Sweden,63.0,17.7,both,-1.8266196299999997,63.0877494,64.91436903,SWE
BOLOBO,COD,16.2281,-2.164666,bolobo,,,,,left_only,-1.4617803699999996,-65.1601494,66.62192977,
BOLOMBA,COD,19.201335,0.318677,bolomba,,,,,left_only,2.973234999999999,2.483343,5.456577999999999,
BOLONDO,COD,21.3709,-0.347366,bolondo,,,,,left_only,2.1695649999999986,-0.6660429999999999,2.835607999999999,
BOLSHAYA PIRYU GUBA,RUS,34.366667,66.666667,bolshaya piryu guba,Bolshaya Piryu Guba,Russia,66.673055556,34.361388889,both,12.995767,67.014033,80.0098,RUS
BOLUNGARVIK,ISL,-23.23333333,66.15,bolungarvik,Bolungarvik,Iceland,66.166667,-23.233333,both,-57.60000033,-0.5166669999999982,58.11666733,ISL
BOMA,COD,13.054232,-5.859538,boma,Boma,Congo (Kinshasa),-5.85,13.05,both,36.287565,-72.026205,108.31377,
BOMBAY,IND,72.84332275,18.95831299,bombay,,,,,left_only,59.78909075,24.81785099,84.60694174,
BOMPUTU,COD,20.1001,-0.382966,bomputu,,,,,left_only,-52.74322275,-19.34127899,72.08450174000001,
BONAVISTA HARBOR,CAN,-53.116667,48.65,bonavista harbor,,,,,left_only,-73.216767,49.032966,122.249733,
BONDO,COD,23.8815,-1.370966,bondo,,,,,left_only,76.998167,-50.020966,127.019133,
BONGANDANGA,COD,21.0475,1.523334,bongandanga,,,,,left_only,-2.8339999999999996,2.8943,5.728299999999999,
BONGKOT TERMINAL,THA,102.333333,8.05,bongkot terminal,Bongkot Terminal,Thailand,8.05,102.333333,both,81.285833,6.5266660000000005,87.812499,THA
BONIFACIO,FRA,9.160488,41.3880045,bonifacio,Bonifacio,France,41.383333,9.166667,both,-93.172845,33.3380045,126.51084949999999,FRA
BONNY,NGA,7.1419,4.424334,bonny,Bonny,Nigeria,4.45,7.166667,both,-2.018588000000001,-36.9636705,38.9822585,NGA
BONNY OFFSHORE TERMINAL,NGA,7.233333,4.183333,bonny offshore terminal,Bonny Offshore Terminal,Nigeria,4.183333,7.233333,both,0.09143300000000032,-0.2410009999999998,0.3324340000000001,NGA
BONSECOURS,FRA,1.125480767,49.42484225,bonsecours,,,,,left_only,-6.107852233,45.24150925,51.349361483,
BONTANG,IDN,117.476151,0.100462297,bontang,,,,,left_only,116.350670233,-49.324379953,165.675050186,
BONTHE,SLE,-12.500063,7.529693,bonthe,Bonthe,Sierra Leone,7.533333,-12.5,both,-129.983396,7.429693,137.413089,SLE
BOOSAASO,SOM,49.183333,11.283333,boosaaso,Boosaaso,Somalia,11.283333,49.183333,both,61.683396,3.7536400000000008,65.437036,SOM
BOOTHBAY HARBOR,USA,-69.583333,43.866667,boothbay harbor,Boothbay Harbor,United States,43.866667,-69.583333,both,-118.76666599999999,32.583334,151.35,USA
BOR,SSD,31.552827,6.204292,bor,,,,,left_only,101.13615999999999,-37.662375,138.798535,
BORDEAUX,FRA,-0.566666667,44.83333333,bordeaux,Bordeaux,France,44.866667,-0.566667,both,-32.119493667,38.62904133,70.74853499700001,FRA
BORGAFJORDUR EYSTRI,ISL,-13.81500244,65.52752686,borgafjordur eystri,,,,,left_only,-13.248335773,20.694193529999993,33.94252930299999,
,ISL,-21.916666667,64.55,borgarnes,Borgarnes,Iceland,64.55,-21.916666667,right_only,-8.101664227,-0.9775268599999976,9.079191086999998,ISL
BORGHOLM,SWE,16.6543,56.884134,borgholm,,,,,left_only,38.570966667,-7.665865999999994,46.236832666999995,
BORJ ISLAM,SYR,35.7905817,35.68173603,borj islam,,,,,left_only,19.136281699999998,-21.20239797,40.33867967,
BORKUM I.,DEU,6.752502441,53.55969238,borkum i.,,,,,left_only,-29.038079258999996,17.877956349999998,46.91603560899999,
BORN,NLD,5.807893753,51.03120041,born,,,,,left_only,-0.9446086879999998,-2.5284919700000046,3.4731006580000043,
BORONGAN,PHL,125.4415526,11.60604982,borongan,,,,,left_only,119.63365884699999,-39.425150589999994,159.05880943699998,
BORSELE,NLD,3.672912598,51.45727539,borsele,,,,,left_only,-121.768640002,39.85122557,161.61986557199998,
BORUSAN FERTILIZER JETTY,TUR,29.1,40.416667,borusan fertilizer jetty,Borusan Fertilizer Jetty,Turkey,40.416667,29.1,both,25.427087402,-11.040608390000003,36.467695792,TUR
BOSANGA,COD,20.6031,-0.274866,bosanga,,,,,left_only,-8.4969,-40.691533,49.188433,
BOSASO,SOM,49.17982578,11.29184225,bosaso,,,,,left_only,28.57672578,11.56670825,40.14343403,
BOSENGE,COD,22.2915,1.498134,bosenge,,,,,left_only,-26.888325780000002,-9.79370825,36.682034030000004,
BOSTON,GBR,-0.016666667,52.96666667,boston,Boston,United States,42.35,-71.05,both,-22.308166667,51.46853267,73.776699337,USA
BOTANY BAY,AUS,151.233333,-34.0,botany bay,Botany Bay,Australia,-34.0,151.233333,both,151.249999667,-86.96666667,238.216666337,AUS
BOTAS,TUR,35.933333,36.883333,botas,Botas,Turkey,36.883333,35.933333,both,-115.29999999999998,70.883333,186.18333299999998,TUR
BOTAS DORTYOL OIL TERMINAL,TUR,36.133333,36.866667,botas dortyol oil terminal,Botas Dortyol Oil Terminal,Turkey,36.866667,36.133333,both,0.20000000000000284,-0.016666000000000736,0.21666600000000358,TUR
BOTAS NATURAL GAS TERMINAL,TUR,27.983333,41.0,botas natural gas terminal,Botas Natural Gas Terminal,Turkey,41.0,27.983333,both,-8.150000000000002,4.133333,12.283333000000002,TUR
BOTENDE,COD,22.7951,-1.857866,botende,,,,,left_only,-5.188232999999997,-42.857866,48.046099,
BOTLEK,NLD,4.291085862,51.8831999,botlek,,,,,left_only,-18.504014138000002,53.7410659,72.245080038,
BOTWOOD,CAN,-55.3391,49.149934,botwood,Botwood,Canada,49.133333333,-55.333333333,both,-59.630185862000005,-2.7332658999999992,62.363451762000004,CAN
BOULOGNE SUR MER,FRA,1.585810568,50.72183676,boulogne sur mer,,,,,left_only,56.924620938,1.576836759999999,58.501457697999996,
BOUREM,MLI,-0.355419517,16.95217066,bourem,,,,,left_only,-1.932934165,-33.772927,35.705861165,
BOURI OIL FIELD,LBY,12.65,33.9,bouri oil field,Bouri Oil Field,Libya,33.9,12.65,both,13.005419517,16.94782934,29.953248857,LBY
BOVALLSTRAND,SWE,11.333333,58.483333,bovallstrand,Bovallstrand,Sweden,58.483333,11.333333,both,-1.3166670000000007,24.583333000000003,25.900000000000006,SWE
BOWEN,AUS,148.2447,-20.02146613,bowen,,,,,left_only,136.91136699999998,-78.50479913000001,215.41616613,
BOWLING,GBR,-4.478795,55.9338745,bowling,Bowling,United Kingdom,55.933333,-4.483333,both,-152.72349499999999,75.95534063,228.67883562999998,GBR
BOYENGE,COD,18.8711,0.366134,boyenge,,,,,left_only,23.349894999999997,-55.5677405,78.91763549999999,
BOZA,COD,29.080978,-2.242539,boza,,,,,left_only,10.209878000000003,-2.608673,12.818551000000003,
BOZAVA,HRV,14.9183752,44.1540507,bozava,,,,,left_only,-14.162602800000002,46.3965897,60.5591925,
BOZCAADA,TUR,26.06694416,39.83361048,bozcaada,,,,,left_only,11.148568959999999,-4.320440220000002,15.46900918,
BRAEFOOT BAY TERMINAL,GBR,-3.316667,56.033333,braefoot bay terminal,Braefoot Bay Terminal,United Kingdom,56.033333,-3.316667,both,-29.383611159999997,16.19972252,45.583333679999996,GBR
BRAILA,ROU,27.98632121,45.28494119,braila,Braila,Romania,45.25,27.983333,both,31.30298821,-10.748391810000001,42.051380019999996,ROU
BRAITHWAITE,USA,-89.9732,29.85173387,braithwaite,,,,,left_only,-117.95952121,-15.433207319999998,133.39272853,
BRAKE,DEU,8.483333,53.333333,brake,Brake,Germany,53.333333,8.483333,both,98.45653300000001,23.481599130000003,121.93813213000001,DEU
BRAKEL,NLD,5.091491699,51.82489014,brakel,,,,,left_only,-3.3918413010000004,-1.5084428600000024,4.900284161000003,
BRANDEN HAVN,DNK,9.030883789,56.80047607,branden havn,,,,,left_only,3.939392090000001,4.975585930000001,8.914978020000003,
BRANDO,FIN,21.05453532,60.42845348,brando,,,,,left_only,12.023651530999999,3.6279774099999997,15.651628940999998,
BRANNFORS,SWE,21.383333,65.016667,brannfors,Brannfors,Sweden,65.016667,21.383333,both,0.328797680000001,4.5882135199999965,4.9170111999999975,SWE
BRASS,NGA,6.242908,4.304362,brass,,,,,left_only,-15.140425,-60.712305,75.85273000000001,
BRASS OIL TERMINAL,NGA,6.283333,4.083333,brass oil terminal,Brass Oil Terminal,Nigeria,4.066667,6.283333,both,0.04042499999999993,-0.22102900000000059,0.2614540000000005,NGA
BRATISLAVA,SVK,17.14720098,48.13335657,bratislava,,,,,left_only,10.863867980000002,44.05002356999999,54.913891549999995,
BRATTHOLMEN,NOR,5.166667,60.35,brattholmen,Brattholmen,Norway,60.348611111,5.1775,both,-11.98053398,12.216643430000005,24.197177410000005,NOR
BRATTVAG/HARAM,NOR,6.440158,62.5887865,brattvag/haram,,,,,left_only,1.273491,2.2387864999999962,3.512277499999996,
BRAUNSCHWEIG,DEU,10.48492828,52.31413581,braunschweig,,,,,left_only,4.04477028,-10.274650689999994,14.319420969999994,
BRAVIKEN,SWE,16.2612915,58.63568115,braviken,,,,,left_only,5.776363219999999,6.32154534,12.097908559999999,
BRAZ,MOZ,35.3777,-17.74086613,braz,,,,,left_only,19.1164085,-76.37654728000001,95.49295578000002,
